[{"title":"Esoterica by Kent Rasmussen 2008 Chavez-Leeds Vineyard Petite Sirah (Rutherford)","country":"US","winery":"Esoterica by Kent Rasmussen","color":"Red","year":2008},{"title":"Estate Biblia Chora 2005 Ovilos Red (Pangeon)","country":"Greece","winery":"Estate Biblia Chora","color":"Red","year":2005,"geocode":{"lat":40.8118053,"lng":23.9908103},"address":"Orfano 640 08, Greece"},{"title":"Fournier Père et Fils 2006 Les Belles Vignes  (Sancerre)","country":"France","winery":"Fournier Père et Fils","color":"Red","year":2006,"geocode":{"lat":47.349752,"lng":2.812526},"address":"Rte de la Garenne, 18300 Verdigny, France"},{"title":"Herdade de São Miguel 2011 São Miguel Alicante Bouschet (Alentejano)","country":"Portugal","winery":"Herdade de São Miguel","color":"Red","year":2011,"geocode":{"lat":38.6159581,"lng":-7.6579849},"address":"Redondo, 7170, Portugal"},{"title":"Waters Crest 2008 Campania Rosso Red (North Fork of Long Island)","country":"US","winery":"Waters Crest","color":"Red","year":2008,"geocode":{"lat":41.012253,"lng":-72.48456399999999},"address":"28735 Main Rd, Cutchogue, NY 11935, USA"},{"title":"Poderi dal Nespoli 1929 2011 Prugneto  (Sangiovese di Romagna Superiore)","country":"Italy","winery":"Poderi dal Nespoli 1929","color":"Red","year":2011,"geocode":{"lat":44.0377762,"lng":11.9948152},"address":"Villa Rossi, 50, 47012 Nespoli FC, Italy"},{"title":"Reustle 2010 Winemaker Reserve Prayer Rock Vineyards Syrah (Umpqua Valley)","country":"US","winery":"Reustle","color":"Red","year":2010,"geocode":{"lat":43.35055029999999,"lng":-123.4373697},"address":"960 Cal Henry Rd, Roseburg, OR 97471, USA"},{"title":"Jean-Claude Debeaune 2011  Beaujolais","country":"France","winery":"Jean-Claude Debeaune","color":"Red","year":2011,"geocode":{"lat":38.4812465,"lng":-122.434619},"address":"1584 St Helena Hwy: MAIN ENTRANCE 849 Zinfandel Ln: TRUCK ENTRANCE, St Helena, CA 94574, USA"},{"title":"Bertolani 2012 Rosè  (Lambrusco Reggiano)","country":"Italy","winery":"Bertolani","color":"Red","year":2012,"geocode":{"lat":44.5905762,"lng":10.7000478},"address":"Via Pedemontana, 10, 42019 Scandiano RE, Italy"},{"title":"Castello di Borghese 2010 Cabernet Franc (North Fork of Long Island)","country":"US","winery":"Castello di Borghese","color":"Red","year":2010,"geocode":{"lat":41.017402,"lng":-72.50649480000001},"address":"17150 Middle Rd, Cutchogue, NY 11935, USA"},{"title":"Colle S. Mustiola di Fabio Cenni 2008 Poggio ai Chiari Sangiovese (Toscana)","country":"Italy","winery":"Colle S. Mustiola di Fabio Cenni","color":"Red","year":2008,"geocode":{"lat":43.025199,"lng":11.961437},"address":"Via delle Torri, 86/a, 53043 Chiusi SI, Italy"},{"title":"Domaine Baron de l'Ecluse 2015 L'Ecluse  (Côte de Brouilly)","country":"France","winery":"Domaine Baron de l'Ecluse","color":"Red","year":2015,"geocode":{"lat":46.1046315,"lng":4.6592726},"address":"Ecluse, 69460 Odenas, France"},{"title":"Domaine des Gaudets 2015  Morgon","country":"France","winery":"Domaine des Gaudets","color":"Red","year":2015,"geocode":{"lat":46.8931787,"lng":4.6268132},"address":"3 Rue de la Fontaine, 71510 Saint-Sernin-du-Plain, France"},{"title":"Ferraud et Fils 2015 Les Charmes  (Morgon)","country":"France","winery":"Ferraud et Fils","color":"Red","year":2015,"geocode":{"lat":46.1122177,"lng":4.7313464},"address":"31 Rue Marechal Foch, 69220 Belleville-en-Beaujolais, France"},{"title":"Georges Duboeuf 2015 Domaine Du Riaz  (Côte de Brouilly)","country":"France","winery":"Georges Duboeuf","color":"Red","year":2015,"geocode":{"lat":46.1767781,"lng":4.736996700000001},"address":"836 Rte de Fleurie, 71570 Romanèche-Thorins, France"},{"title":"Alcance 2014 Gran Reserva Merlot (Maule Valley)","country":"Chile","winery":"Alcance","color":"Red","year":2014,"geocode":{"lat":42.9344054,"lng":-73.81208649999999},"address":"43 Round Lake Rd Suite #3, Ballston Lake, NY 12019, USA"},{"title":"Assolati 2012  Montecucco","country":"Italy","winery":"Assolati","color":"Red","year":2012,"geocode":{"lat":38.2565662,"lng":-122.4370805},"address":"1620 Carneros Meadows Ln Suite 115, Sonoma, CA 95476, USA"},{"title":"Collemassari 2012 Poggio Ombrone Riserva  (Montecucco)","country":"Italy","winery":"Collemassari","color":"Red","year":2012,"geocode":{"lat":42.887957,"lng":11.3282684},"address":"Localita, 58044 Poggi del Sasso GR, Italy"},{"title":"Mazzei 2014 Poggio Badiola Red (Toscana)","country":"Italy","winery":"Mazzei","color":"Red","year":2014,"geocode":{"lat":43.4356387,"lng":11.3024883},"address":"Via Ottone III di Sassonia n. 5 Loc, 53011 Fonterutoli SI, Italy"},{"title":"Paritua 2014 Pinot Noir (Central Otago)","country":"New Zealand","winery":"Paritua","color":"Red","year":2014,"geocode":{"lat":-39.651295,"lng":176.7035769},"address":"2112 Maraekakaho Road Bridge Pa Triangle, Hastings 4171, New Zealand"},{"title":"Poggio al Tufo 2012 Alicante (Toscana)","country":"Italy","winery":"Poggio al Tufo","color":"Red","year":2012,"geocode":{"lat":42.6086111,"lng":11.6966667},"address":"Località Poggio Cavalluccio 6199, 58017 Pitigliano GR, Italy"},{"title":"Snake River 2012 Arena Valley Vineyard Cabernet Franc","country":"US","winery":"Snake River","color":"Red","year":2012,"geocode":{"lat":43.61336110000001,"lng":-116.2052401},"address":"786 W Broad St, Boise, ID 83702, USA"},{"title":"Hudson-Chatham 2014 Casscles Vineyards Chelois (New York)","country":"US","winery":"Hudson-Chatham","color":"Red","year":2014,"geocode":{"lat":42.3108802,"lng":-73.6417505},"address":"1900 NY-66, Ghent, NY 12075, USA"},{"title":"Wairau River 2014 Pinot Noir (Marlborough)","country":"New Zealand","winery":"Wairau River","color":"Red","year":2014,"geocode":{"lat":-41.485713,"lng":173.817748},"address":"11 Rapaura Road, Blenheim 7273, New Zealand"},{"title":"Altesino 2014 Rosso Red (Toscana)","country":"Italy","winery":"Altesino","color":"Red","year":2014,"geocode":{"lat":43.10219319999999,"lng":11.4899236},"address":"Strada Provinciale del Brunello, 53024 Montalcino SI, Italy"},{"title":"Williamson Vineyard 2012 Sangiovese","country":"US","winery":"Williamson Vineyard","color":"Red","year":2012,"geocode":{"lat":43.5857129,"lng":-116.792945},"address":"14807 Sunny Slope Rd, Caldwell, ID 83607, USA"},{"title":"Fattoria Montellori 2011 Salamartano Red (Toscana)","country":"Italy","winery":"Fattoria Montellori","color":"Red","year":2011,"geocode":{"lat":43.7354628,"lng":10.80808},"address":"Via Pistoiese, 1, 50054 Fucecchio FI, Italy"},{"title":"Guicciardini Strozzi 2014 Campo al Capriolo  (Bolgheri)","country":"Italy","winery":"Guicciardini Strozzi","color":"Red","year":2014,"geocode":{"lat":43.49224359999999,"lng":11.098646},"address":"Località Cusona, 5, 53037 San Gimignano SI, Italy"},{"title":"Henry Fessy 2015  Chénas","country":"France","winery":"Henry Fessy","color":"Red","year":2015,"geocode":{"lat":46.121562,"lng":4.6996097},"address":"644 Rte de Bel air, 69220 Belleville-en-Beaujolais, France"},{"title":"Henry Fessy 2015  Chiroubles","country":"France","winery":"Henry Fessy","color":"Red","year":2015,"geocode":{"lat":46.121562,"lng":4.6996097},"address":"644 Rte de Bel air, 69220 Belleville-en-Beaujolais, France"},{"title":"Henry Fessy 2015  Morgon","country":"France","winery":"Henry Fessy","color":"Red","year":2015,"geocode":{"lat":46.121562,"lng":4.6996097},"address":"644 Rte de Bel air, 69220 Belleville-en-Beaujolais, France"},{"title":"Henry Fessy 2015  Saint-Amour","country":"France","winery":"Henry Fessy","color":"Red","year":2015,"geocode":{"lat":46.121562,"lng":4.6996097},"address":"644 Rte de Bel air, 69220 Belleville-en-Beaujolais, France"},{"title":"Leyda 2014 Single Vineyard Canelo Syrah (Leyda Valley)","country":"Chile","winery":"Leyda","color":"Red","year":2014,"geocode":{"lat":-33.61077240000001,"lng":-71.4572075},"address":"Leyda, San Antonio, Valparaíso, Chile"},{"title":"Podere Ciona 2010 Le Diacce Merlot (Toscana)","country":"Italy","winery":"Podere Ciona","color":"Red","year":2010,"geocode":{"lat":43.476413,"lng":11.456984},"address":"Loc. Montegrossi, 17, 53013 Gaiole In Chianti SI, Italy"},{"title":"Spring Mountain Vineyard 1997 Miravalle-La Perla-Chevalier Red","country":"US","winery":"Spring Mountain Vineyard","color":"Red","year":1997,"geocode":{"lat":38.50707,"lng":-122.4919008},"address":"2805 Spring Mountain Rd, St Helena, CA 94574, USA"},{"title":"Conn Valley 1997 Eloge Red (Napa Valley)","country":"US","winery":"Conn Valley","color":"Red","year":1997,"geocode":{"lat":38.4862203,"lng":-122.4048709},"address":"8711 Silverado Trail, St Helena, CA 94574, USA"},{"title":"Cain 1997 Concept Red (Napa Valley)","country":"US","winery":"Cain","color":"Red","year":1997,"geocode":{"lat":38.4979014,"lng":-122.538143},"address":"3800 Langtry Rd, St Helena, CA 94574, USA"},{"title":"Chimney Rock 1997 Elevage Red (Stags Leap District)","country":"US","winery":"Chimney Rock","color":"Red","year":1997,"geocode":{"lat":38.3905194,"lng":-122.3136306},"address":"5350 Silverado Trail, Napa, CA 94558, USA"},{"title":"Stonehaven 1998 Shiraz (South Eastern Australia)","country":"Australia","winery":"Stonehaven","color":"Red","year":1998,"geocode":{"lat":-36.6581377,"lng":140.550727},"address":"Padthaway SA 5271, Australia"},{"title":"Easton 2013 Zinfandel (Fiddletown)","country":"US","winery":"Easton","color":"Red","year":2013,"geocode":{"lat":40.6978445,"lng":-75.22604489999999},"address":"1247 Simon Blvd Suite N103, Easton, PA 18042, USA"},{"title":"Fiddletown Cellars 2013 Barbera (Amador County)","country":"US","winery":"Fiddletown Cellars","color":"Red","year":2013,"geocode":{"lat":38.5358153,"lng":-120.7234992},"address":"PO Box 69, Fiddletown, CA 95629, USA"},{"title":"Firriato 2012 Cavanera Covo delle Coturnie  (Etna)","country":"Italy","winery":"Firriato","color":"Red","year":2012,"geocode":{"lat":37.9914004,"lng":12.5522745},"address":"Via Trapani, 4, 91027 Paceco TP, Italy"},{"title":"Girolamo Russo 2014 A Rina  (Etna)","country":"Italy","winery":"Girolamo Russo","color":"Red","year":2014,"geocode":{"lat":37.872783,"lng":15.0360416},"address":"via 95012 ct, Via Regina Margherita, 80, 95012 Passopisciaro CT, Italy"},{"title":"Goldeneye 2013 Confluence Vineyard Pinot Noir (Anderson Valley)","country":"US","winery":"Goldeneye","color":"Red","year":2013,"geocode":{"lat":39.0576364,"lng":-123.4327687},"address":"9200 CA-128, Philo, CA 95466, USA"},{"title":"Albert Bichot 2014 Domaine du Pavillon Clos des Ursulines  (Pommard)","country":"France","winery":"Albert Bichot","color":"Red","year":2014,"geocode":{"lat":47.0250364,"lng":4.8439377},"address":"6 Bd Jacques Copeau, 21200 Beaune, France"},{"title":"Amador Cellars 2013 Cooper & Karmere Vineyards Barbera (Amador County)","country":"US","winery":"Amador Cellars","color":"Red","year":2013,"geocode":{"lat":38.525597,"lng":-120.8169223},"address":"11093 Shenandoah Rd, Plymouth, CA 95669, USA"},{"title":"Andis 2012 Cooper Ranch Barbera (Amador County)","country":"US","winery":"Andis","color":"Red","year":2012,"geocode":{"lat":38.5214988,"lng":-120.8182701},"address":"11000 Shenandoah Rd, Plymouth, CA 95669, USA"},{"title":"Bella Luna 2013 Bailey Ranch Riserva Zinfandel (Adelaida District)","country":"US","winery":"Bella Luna","color":"Red","year":2013,"geocode":{"lat":35.5282723,"lng":-120.6800032},"address":"1850 Templeton Rd, Templeton, CA 93465, USA"},{"title":"BKB 2014 Makena Pinot Noir (Eola-Amity Hills)","country":"US","winery":"BKB","color":"Red","year":2014,"geocode":{"lat":38.367125,"lng":-122.604111},"address":"5561 Sonoma Mountain Rd, Santa Rosa, CA 95404, USA"},{"title":"Black Stallion 2013 Limited Release Zinfandel (Rockpile)","country":"US","winery":"Black Stallion","color":"Red","year":2013,"geocode":{"lat":38.35983179999999,"lng":-122.2906388},"address":"4089 Silverado Trail, Napa, CA 94558, USA"},{"title":"Boeckel 2013 Les Terres Rouges Pinot Noir (Alsace)","country":"France","winery":"Boeckel","color":"Red","year":2013,"geocode":{"lat":48.3960993,"lng":7.441579399999999},"address":"2 Rue de la Montagne, 67140 Mittelbergheim, France"},{"title":"Boeger 2013 Barbera (El Dorado)","country":"US","winery":"Boeger","color":"Red","year":2013,"geocode":{"lat":38.7427956,"lng":-120.7747328},"address":"1709 Carson Rd, Placerville, CA 95667, USA"},{"title":"Burgo Viejo 2013 Crianza  (Rioja)","country":"Spain","winery":"Burgo Viejo","color":"Red","year":2013,"geocode":{"lat":42.17627239999999,"lng":-1.7572023},"address":"C. Concordia, 8, 26540 Alfaro, La Rioja, Spain"},{"title":"Caruso & Minini 2014 Perricone (Terre Siciliane)","country":"Italy","winery":"Caruso & Minini","color":"Red","year":2014,"geocode":{"lat":35.5814725,"lng":-80.8756614},"address":"631 Brawley School Rd # 405, Mooresville, NC 28117, USA"},{"title":"Cottanera 2015 Rosato Nerello Mascalese (Etna)","country":"Italy","winery":"Cottanera","color":"Red","year":2015,"geocode":{"lat":37.886166,"lng":15.029575},"address":"Strada Provinciale, 89 - Contrada Iannazzo, 95030 Castiglione di Sicilia CT, Italy"},{"title":"Graveyard 2014 Mortal Zin Zinfandel (Paso Robles)","country":"US","winery":"Graveyard","color":"Red","year":2014,"geocode":{"lat":35.7180001,"lng":-120.6160274},"address":"6990 Estrella Rd, San Miguel, CA 93451, USA"},{"title":"Hunnicutt 2013 Zinfandel (Napa Valley)","country":"US","winery":"Hunnicutt","color":"Red","year":2013,"geocode":{"lat":38.5473988,"lng":-122.4883611},"address":"3524 Silverado Trail N, St Helena, CA 94574, USA"},{"title":"Kuentz-Bas 2014 Tradition Pinot Noir (Alsace)","country":"France","winery":"Kuentz-Bas","color":"Red","year":2014,"geocode":{"lat":48.0349643,"lng":7.280920699999998},"address":"14 Route des Vins, 68420 Husseren-les-Châteaux, France"},{"title":"Finca Patagonia 2015 Expedicion Merlot (Maule Valley)","country":"Chile","winery":"Finca Patagonia","color":"Red","year":2015,"geocode":{"lat":-39.04097,"lng":-67.6017193},"address":"RN22, Río Negro, Argentina"},{"title":"Mas Chappell 2012 Pinot Noir (Wahluke Slope)","country":"US","winery":"Mas Chappell","color":"Red","year":2012,"geocode":{"lat":46.46185,"lng":-120.3301749},"address":"1070 Clark Rd, Zillah, WA 98953, USA"},{"title":"Casal da Coelheira 2014 Red (Tejo)","country":"Portugal","winery":"Casal da Coelheira","color":"Red","year":2014,"geocode":{"lat":39.4495097,"lng":-8.2510507},"address":"N118 1331, 2205-681 Tramagal, Portugal"},{"title":"Viña La Fortuna 2013 Twelvestones Malbec (Lontué Valley)","country":"Chile","winery":"Viña La Fortuna","color":"Red","year":2013,"geocode":{"lat":-35.0430458,"lng":-71.2890824},"address":"Sagrada Familia, Maule, Chile"},{"title":"Quinta da Lagoalva de Cima 2015 Espirito Lagoalva Red (Tejo)","country":"Portugal","winery":"Quinta da Lagoalva de Cima","color":"Red","year":2015,"geocode":{"lat":39.2959453,"lng":-8.5629376},"address":"Quinta Lagoalva De Cima, 2090-222 Alpiarça, Portugal"},{"title":"Redwood Empire 2014 Pinot Noir (Sonoma Coast)","country":"US","winery":"Redwood Empire","color":"Red","year":2014,"geocode":{"lat":38.7228876,"lng":-122.925474},"address":"22000 Geyserville Ave, Geyserville, CA 95441, USA"},{"title":"White Rock Vineyards 2013 Claret (Napa Valley)","country":"US","winery":"White Rock Vineyards","color":"Red","year":2013,"geocode":{"lat":38.3776798,"lng":-122.2865653},"address":"1112 Loma Vista Dr, Napa, CA 94558, USA"},{"title":"Kenos 2013 Tempranillo (Cachapoal Valley)","country":"Chile","winery":"Kenos","color":"Red","year":2013,"geocode":{"lat":39.11836460000001,"lng":-77.2017743},"address":"20 Grand Corner Ave A, Gaithersburg, MD 20878, USA"},{"title":"Lacheteau 2015 Tip Top Pinot Noir (Vin de France)","country":"France","winery":"Lacheteau","color":"Red","year":2015,"geocode":{"lat":47.4349829,"lng":0.7990107},"address":"ZI L'étang Vignon,, 37210 Vouvray, France"},{"title":"Plaisance Ranch 2014 Ranch Red (Applegate Valley)","country":"US","winery":"Plaisance Ranch","color":"Red","year":2014,"geocode":{"lat":42.24195460000001,"lng":-123.2720098},"address":"16955 Water Gap Rd, Williams, OR 97544, USA"},{"title":"Granite Springs 1999 Syrah (El Dorado)","country":"US","winery":"Granite Springs","color":"Red","year":1999,"geocode":{"lat":38.038356,"lng":-120.624826},"address":"772 Appaloosa Rd, Angels Camp, CA 95222, USA"},{"title":"M. Cosentino 2000 Cigar Zin Zinfandel (Lodi)","country":"US","winery":"M. Cosentino","color":"Red","year":2000,"geocode":{"lat":38.41924220000001,"lng":-122.3888066},"address":"7415 St Helena Hwy, Napa, CA 94558, USA"},{"title":"Sandalford 2000 Merlot (Western Australia)","country":"Australia","winery":"Sandalford","color":"Red","year":2000,"geocode":{"lat":-31.8687178,"lng":115.9927081},"address":"3210 W Swan Rd, Caversham WA 6055, Australia"},{"title":"Kunde 1999 Shaw Vineyard Century Vines Zinfandel (Sonoma Valley)","country":"US","winery":"Kunde","color":"Red","year":1999,"geocode":{"lat":38.412206,"lng":-122.5398302},"address":"9825 Sonoma Hwy, Kenwood, CA 95452, USA"},{"title":"Stonehedge 2000 Zinfandel (California)","country":"US","winery":"Stonehedge","color":"Red","year":2000,"geocode":{"lat":38.2973044,"lng":-122.2950053},"address":"1929 1st St, Napa, CA 94559, USA"},{"title":"Calina 2000 Reserve - Cabernet Sauvignon/Carmenere Red (Maule Valley)","country":"Chile","winery":"Calina","color":"Red","year":2000,"geocode":{"lat":-35.4358884,"lng":-71.610394},"address":"Calle Camino las Rastras Km 7, Talca, Maule, Chile"},{"title":"Beaucanon 1998 La Crosse Cabernet Franc (Napa Valley)","country":"US","winery":"Beaucanon","color":"Red","year":1998,"geocode":{"lat":38.3297936,"lng":-122.2750946},"address":"1006 Monticello Rd, Napa, CA 94558, USA"},{"title":"Primus 1999 Red (Casablanca Valley)","country":"Chile","winery":"Primus","color":"Red","year":1999,"geocode":{"lat":33.9992583,"lng":-118.4639295},"address":"727 Lincoln Blvd, Venice, CA 90291, USA"},{"title":"St. Supéry 1999 Merlot (Napa Valley)","country":"US","winery":"St. Supéry","color":"Red","year":1999,"geocode":{"lat":38.4552623,"lng":-122.4143177},"address":"8440 St Helena Hwy, Rutherford, CA 94574, USA"},{"title":"Stonehedge 1999 Zinfandel (Napa Valley)","country":"US","winery":"Stonehedge","color":"Red","year":1999},{"title":"Talley 1999 Rosemary's Vineyard Pinot Noir (Arroyo Grande Valley)","country":"US","winery":"Talley","color":"Red","year":1999,"geocode":{"lat":35.1789311,"lng":-120.524248},"address":"3031 Lopez Dr, Arroyo Grande, CA 93420, USA"},{"title":"Holly's Hill 1999 Syrah (El Dorado)","country":"US","winery":"Holly's Hill","color":"Red","year":1999,"geocode":{"lat":38.6758533,"lng":-120.6967764},"address":"3680 Leisure Ln, Placerville, CA 95667, USA"},{"title":"Casa Julia 2000 Reserve Merlot (Maipo Valley)","country":"Chile","winery":"Casa Julia","color":"Red","year":2000,"geocode":{"lat":32.443335,"lng":-97.787711},"address":"202 N Houston St, Granbury, TX 76048, USA"},{"title":"San Simeon 1999 Syrah (Arroyo Seco)","country":"US","winery":"San Simeon","color":"Red","year":1999,"geocode":{"lat":35.643626,"lng":-121.1917064},"address":"442 Slo San Simeon Rd, San Simeon, CA 93452, USA"},{"title":"Collemassari 2014 Rigoleto  (Montecucco)","country":"Italy","winery":"Collemassari","color":"Red","year":2014,"geocode":{"lat":42.887957,"lng":11.3282684},"address":"Localita, 58044 Poggi del Sasso GR, Italy"},{"title":"Verum 2015 Pinot Noir (Alto Valle del Río Negro)","country":"Argentina","winery":"Verum","color":"Red","year":2015,"geocode":{"lat":-38.9433218,"lng":-67.9216761},"address":"Mitre, Río Negro, Argentina"},{"title":"Senda Verde 2015 Mencía (Bierzo)","country":"Spain","winery":"Senda Verde","color":"Red","year":2015,"geocode":{"lat":42.2370719,"lng":-8.727469},"address":"C/ Progreso 24, Oficina 3, 36202 Vigo, Pontevedra, Spain"},{"title":"Steiner Family Vineyards 2013 Free Bird 19 Zinfandel (El Dorado)","country":"US","winery":"Steiner Family Vineyards","color":"Red","year":2013},{"title":"Manyana 2015 Tempranillo (Cariñena)","country":"Spain","winery":"Manyana","color":"Red","year":2015,"geocode":{"lat":45.81059399999999,"lng":-91.898304},"address":"1540 S River St, Spooner, WI 54801, USA"},{"title":"Poggio Nardone 2014  Rosso di Montalcino","country":"Italy","winery":"Poggio Nardone","color":"Red","year":2014,"geocode":{"lat":40.855812,"lng":-73.2028045},"address":"220 W Main St, Smithtown, NY 11787, USA"},{"title":"L. Tramier & Fils 2015 Collection  (Bourgogne Hautes Côtes de Beaune)","country":"France","winery":"L. Tramier & Fils","color":"Red","year":2015,"geocode":{"lat":46.838985,"lng":4.716182},"address":"14 Rue de Chamerose, 71640 Mercurey, France"},{"title":"Mascota 2015 La Mascota Pinot Noir (Mendoza)","country":"Argentina","winery":"Mascota","color":"Red","year":2015,"geocode":{"lat":-32.898813,"lng":-68.82180199999999},"address":"Mendoza, Mendoza Province, Argentina"},{"title":"Midnight 2013 Moonlight Cabernet Franc (El Pomar District)","country":"US","winery":"Midnight","color":"Red","year":2013,"geocode":{"lat":35.575356,"lng":-120.736549},"address":"2925 Anderson Rd, Paso Robles, CA 93446, USA"},{"title":"Domaines Devillard 2014 Le Renard  (Coteaux Bourguignons)","country":"France","winery":"Domaines Devillard","color":"Red","year":2014,"geocode":{"lat":46.8369173,"lng":4.7351031},"address":"13 Rue du Closeau, 71640 Mercurey, France"},{"title":"François Lurton 2015 Araucano Humo Blanco Edicion Limitada Pinot Noir (Lolol Valley)","country":"Chile","winery":"François Lurton","color":"Red","year":2015,"geocode":{"lat":-34.7291192,"lng":-71.5925413},"address":"Km 29 Ruta - l.72, Lolol, O'Higgins, Chile"},{"title":"Sauvion 2015 Loire Valley  (Chinon)","country":"France","winery":"Sauvion","color":"Red","year":2015,"geocode":{"lat":47.153206,"lng":-1.241561},"address":"Château du Cleray, 44330 Vallet, France"},{"title":"Renato Ratti 2013 Conca  (Barolo)","country":"Italy","winery":"Renato Ratti","color":"Red","year":2013,"geocode":{"lat":44.63605039999999,"lng":7.954834099999999},"address":"Frazione Annunziata, 7, 12064 La Morra CN, Italy"},{"title":"Stift Klosterneuburg 2015 St. Laurent (Thermenregion)","country":"Austria","winery":"Stift Klosterneuburg","color":"Red","year":2015,"geocode":{"lat":48.3053201,"lng":16.3264427},"address":"Rathauspl. 24, 3400 Klosterneuburg, Austria"},{"title":"Vignobles K 2014 Badine de la Patache  (Pomerol)","country":"France","winery":"Vignobles K","color":"Red","year":2014,"geocode":{"lat":47.180179,"lng":4.959953},"address":"21220 Chambolle-Musigny, France"},{"title":"Bel Colle 2013 Simposio  (Barolo)","country":"Italy","winery":"Bel Colle","color":"Red","year":2013,"geocode":{"lat":44.6585859,"lng":7.926916599999999},"address":"Via Castagni, 56, 12060 Verduno CN, Italy"},{"title":"Betwixt 2015 Helluva vineyard Pinot Noir (Anderson Valley)","country":"US","winery":"Betwixt","color":"Red","year":2015,"geocode":{"lat":37.7405081,"lng":-122.4046939},"address":"540 Barneveld Ave suite k, San Francisco, CA 94124, USA"},{"title":"Jalits 2014 Steinberg Red (Burgenland)","country":"Austria","winery":"Jalits","color":"Red","year":2014,"geocode":{"lat":47.1966123,"lng":16.3761599},"address":"Untere Dorfstraße 16, 7512 Badersdorf, Austria"},{"title":"Domaine des Remizières 2011 Cuvée Christophe  (Crozes-Hermitage)","country":"France","winery":"Domaine des Remizières","color":"Red","year":2011,"geocode":{"lat":45.0670255,"lng":4.881784199999999},"address":"1459 avenue du vercors, 26600 MERCUROL, France"},{"title":"Produttori del Barbaresco 2011 Rio Sordo  (Barbaresco)","country":"Italy","winery":"Produttori del Barbaresco","color":"Red","year":2011,"geocode":{"lat":44.727405,"lng":8.0807749},"address":"Via Torino, 54, 12050 Barbaresco CN, Italy"},{"title":"Reynvaan Family Vineyards 2014 Estate In the Rocks Syrah (Walla Walla Valley (WA))","country":"US","winery":"Reynvaan Family Vineyards","color":"Red","year":2014,"geocode":{"lat":46.0133297,"lng":-118.2239252},"address":"6309 Cottonwood Rd, Walla Walla, WA 99362, USA"},{"title":"Shoup 2013 Red (Columbia Valley (WA))","country":"US","winery":"Shoup","color":"Red","year":2013,"geocode":{"lat":46.069996,"lng":-118.4900798},"address":"1604 Frenchtown Rd, Walla Walla, WA 99362, USA"},{"title":"Somerston 2013 Deerhound Estate Grown Cabernet Franc (Napa Valley)","country":"US","winery":"Somerston","color":"Red","year":2013,"geocode":{"lat":38.5062006,"lng":-122.2772711},"address":"3450 Sage Canyon Rd, St Helena, CA 94574, USA"},{"title":"Talisman 2014 Huckleberry's Vineyard Pinot Noir (Sonoma Coast)","country":"US","winery":"Talisman","color":"Red","year":2014,"geocode":{"lat":38.3635868,"lng":-122.5241608},"address":"13651 Arnold Dr, Glen Ellen, CA 95442, USA"},{"title":"Tenor 2014 Syrah (Columbia Valley (WA))","country":"US","winery":"Tenor","color":"Red","year":2014,"geocode":{"lat":47.7436827,"lng":-122.1463126},"address":"16116 140th Pl NE, Woodinville, WA 98072, USA"},{"title":"Long Meadow Ranch 2015 Pinot Noir (Anderson Valley)","country":"US","winery":"Long Meadow Ranch","color":"Red","year":2015,"geocode":{"lat":38.50105,"lng":-122.4630139},"address":"738 Main St, St Helena, CA 94574, USA"},{"title":"Marcarini 2013 Brunate  (Barolo)","country":"Italy","winery":"Marcarini","color":"Red","year":2013,"geocode":{"lat":44.6387514,"lng":7.934526699999999},"address":"Piazza Martiri, 2, 12064 La Morra CN, Italy"},{"title":"Marcarini 2013 La Serra  (Barolo)","country":"Italy","winery":"Marcarini","color":"Red","year":2013,"geocode":{"lat":44.6387514,"lng":7.934526699999999},"address":"Piazza Martiri, 2, 12064 La Morra CN, Italy"},{"title":"Amici 2014 Reserve Pinot Noir (Russian River Valley)","country":"US","winery":"Amici","color":"Red","year":2014,"geocode":{"lat":38.6116182,"lng":-122.5924967},"address":"3130 Old Lawley Toll Rd, Calistoga, CA 94515, USA"},{"title":"Bodkin 2016 Hotspur Rosé of Syrah (Russian River Valley)","country":"US","winery":"Bodkin","color":"Red","year":2016,"geocode":{"lat":34.6425452,"lng":-120.4554614},"address":"313 N F St, Lompoc, CA 93436, USA"},{"title":"Goldeneye 2014 Confluence Vineyard Pinot Noir (Anderson Valley)","country":"US","winery":"Goldeneye","color":"Red","year":2014,"geocode":{"lat":39.0576364,"lng":-123.4327687},"address":"9200 CA-128, Philo, CA 95466, USA"},{"title":"Heinrich Hartl 2013 Graf Weingartl Pinot Noir (Thermenregion)","country":"Austria","winery":"Heinrich Hartl","color":"Red","year":2013,"geocode":{"lat":47.978914,"lng":16.3249266},"address":"Trumauer Str. 24, 2522 Oberwaltersdorf, Austria"},{"title":"Centovigne 2011 Castellengo Nebbiolo (Coste della Sesia)","country":"Italy","winery":"Centovigne","color":"Red","year":2011,"geocode":{"lat":45.5319572,"lng":8.1873109},"address":"Frazione Castellengo, 29, 13836 Cossato BI, Italy"},{"title":"Château Léognan 2014  Pessac-Léognan","country":"France","winery":"Château Léognan","color":"Red","year":2014,"geocode":{"lat":44.715818,"lng":-0.609204},"address":"98 Av. de Mont de Marsan, 33850 Léognan, France"},{"title":"Curto Marco 2013 Arborina  (Barolo)","country":"Italy","winery":"Curto Marco","color":"Red","year":2013,"geocode":{"lat":44.639652,"lng":7.952852},"address":"12064 Annunziata, Province of Cuneo, Italy"},{"title":"Feiler-Artinger 2015 Umriss Blaufränkisch (Burgenland)","country":"Austria","winery":"Feiler-Artinger","color":"Red","year":2015,"geocode":{"lat":47.80115809999999,"lng":16.6746661},"address":"Hauptstraße 3, 7071 Rust, Austria"},{"title":"FEL 2014 Savoy Vineyard Pinot Noir (Anderson Valley)","country":"US","winery":"FEL","color":"Red","year":2014,"geocode":{"lat":38.4240816,"lng":-122.3447665},"address":"1473 Yountville Cross Rd, Yountville, CA 94599, USA"},{"title":"Figgins 2014 Estate Red (Walla Walla Valley (WA))","country":"US","winery":"Figgins","color":"Red","year":2014,"geocode":{"lat":46.0797309,"lng":-118.2902771},"address":"2900 Melrose St, Walla Walla, WA 99362, USA"},{"title":"Abadia Retuerta 2012 Estate Grown Selección Especial Red (Sardon de Duero)","country":"Spain","winery":"Abadia Retuerta","color":"Red","year":2012,"geocode":{"lat":41.6110164,"lng":-4.3964153},"address":"N-122, km 332, 5, 47340 Sardón de Duero, Valladolid, Spain"},{"title":"Hogue 2013 Genesis Merlot (Columbia Valley (WA))","country":"US","winery":"Hogue","color":"Red","year":2013,"geocode":{"lat":46.2155245,"lng":-119.7437646},"address":"2800 Lee Rd, Prosser, WA 99350, USA"},{"title":"Judeka 2014 Nero d'Avola (Vittoria)","country":"Italy","winery":"Judeka","color":"Red","year":2014,"geocode":{"lat":37.200696,"lng":14.473068},"address":"C.da San Mauro Sotto SP 39/II, Km 3.8, 95041 Caltagirone CT, Italy"},{"title":"Soos Creek 2012 Terrible Beauty Red (Columbia Valley (WA))","country":"US","winery":"Soos Creek","color":"Red","year":2012,"geocode":{"lat":47.3865,"lng":-122.1110879},"address":"24012 172nd Ave SE, Kent, WA 98042, USA"},{"title":"Statti 2010 Batasarro Red (Calabria)","country":"Italy","winery":"Statti","color":"Red","year":2010,"geocode":{"lat":38.922387,"lng":16.3241897},"address":"Contrada Lenti, 88046 Lamezia Terme CZ, Italy"},{"title":"Stolpman 2013 Estate Grown Syrah (Ballard Canyon)","country":"US","winery":"Stolpman","color":"Red","year":2013,"geocode":{"lat":34.6653361,"lng":-120.1142778},"address":"2434 Alamo Pintado Ave, Los Olivos, CA 93441, USA"},{"title":"Swick 2014 Terre Brûlée Grenache (Columbia Valley (WA))","country":"US","winery":"Swick","color":"Red","year":2014,"geocode":{"lat":45.335026,"lng":-122.948179},"address":"28005 NE Bell Rd, Newberg, OR 97132, USA"},{"title":"Wilridge 2013 Estate Wilridge Vineyard Zweigelt (Naches Heights)","country":"US","winery":"Wilridge","color":"Red","year":2013,"geocode":{"lat":46.6244186,"lng":-120.6268407},"address":"250 Ehler Rd, Yakima, WA 98908, USA"},{"title":"Wilridge 2013 Upland Vineyard Barbera (Snipes Mountain)","country":"US","winery":"Wilridge","color":"Red","year":2013,"geocode":{"lat":46.6244186,"lng":-120.6268407},"address":"250 Ehler Rd, Yakima, WA 98908, USA"},{"title":"Château Phélan-Ségur 2013  Saint-Estèphe","country":"France","winery":"Château Phélan-Ségur","color":"Red","year":2013,"geocode":{"lat":45.2614496,"lng":-0.7690932},"address":"Rue des Écoles, 33180 Saint-Estèphe, France"},{"title":"Chateau Ste. Michelle 2013 Syrah (Columbia Valley (WA))","country":"US","winery":"Chateau Ste. Michelle","color":"Red","year":2013,"geocode":{"lat":47.7299119,"lng":-122.1508226},"address":"14111 NE 145th St, Woodinville, WA 98072, USA"},{"title":"Château Trottevieille 2013 Dame de Trottevieille  (Saint-Émilion)","country":"France","winery":"Château Trottevieille","color":"Red","year":2013,"geocode":{"lat":44.8947693,"lng":-0.145056},"address":"Trotte-Vieille, 33330 Saint-Émilion, France"},{"title":"Château Vieux Robin 2013  Médoc","country":"France","winery":"Château Vieux Robin","color":"Red","year":2013,"geocode":{"lat":45.3723755,"lng":-0.8873823},"address":"3 Rte des Anguilleys, 33340 Bégadan, France"},{"title":"City Winery of New York 2012 Bacigalupi Vineyard Reserve Pinot Noir (Russian River Valley)","country":"US","winery":"City Winery of New York","color":"Red","year":2012,"geocode":{"lat":40.7431488,"lng":-74.00921629999999},"address":"25 11th Ave, at Hudson River Park, New York, NY 10011, USA"},{"title":"Columbia Winery 2013 Limited Release Cabernet Franc (Horse Heaven Hills)","country":"US","winery":"Columbia Winery","color":"Red","year":2013,"geocode":{"lat":47.7340583,"lng":-122.1522083},"address":"14030 NE 145th St, Woodinville, WA 98072, USA"},{"title":"Domaine de Saint-Guirons 2011  Pauillac","country":"France","winery":"Domaine de Saint-Guirons","color":"Red","year":2011,"geocode":{"lat":45.2655399,"lng":-123.0556336},"address":"6750 NE Breyman Orchards Rd, Dayton, OR 97114, USA"},{"title":"Château Tour Haut-Caussan 2012  Médoc","country":"France","winery":"Château Tour Haut-Caussan","color":"Red","year":2012,"geocode":{"lat":45.3218281,"lng":-0.8767505999999999},"address":"27 Bis Rue de Verdun, 33340 Blaignan-Prignac, France"},{"title":"Codorníu 2011 Gran Codorniu Pinot Noir (Cava)","country":"Spain","winery":"Codorníu","color":"Red","year":2011,"geocode":{"lat":41.4336955,"lng":1.7968728},"address":"Avda. Jaume Codorniu, s/n, 08770, Barcelona, Spain"},{"title":"Columbia Crest 2012 Grand Estates Gold Limited Release Red (Columbia Valley (WA))","country":"US","winery":"Columbia Crest","color":"Red","year":2012,"geocode":{"lat":45.9570837,"lng":-119.6095194},"address":"178810 WA-221, Paterson, WA 99345, USA"},{"title":"Dusted Valley 2012 Stained Tooth Syrah (Columbia Valley (WA))","country":"US","winery":"Dusted Valley","color":"Red","year":2012,"geocode":{"lat":46.0111341,"lng":-118.3423866},"address":"980 Merlot Dr, Walla Walla, WA 99362, USA"},{"title":"Fattoria dei Barbi 2010 Vigna del Fiore  (Brunello di Montalcino)","country":"Italy","winery":"Fattoria dei Barbi","color":"Red","year":2010,"geocode":{"lat":43.031067,"lng":11.511996},"address":"Loc. Podernovi, 170, 53024 Montalcino SI, Italy"},{"title":"Genoa 2012 Danger Buoy Sangiovese (Walla Walla Valley (WA))","country":"US","winery":"Genoa","color":"Red","year":2012,"geocode":{"lat":47.7692,"lng":-122.1504484},"address":"19501 144th Ave NE c1100, Woodinville, WA 98072, USA"},{"title":"Golden Ridge 2010 Estate Red (Walla Walla Valley (WA))","country":"US","winery":"Golden Ridge","color":"Red","year":2010,"geocode":{"lat":46.106714,"lng":-118.239938},"address":"US-12, Walla Walla, WA 99362, USA"},{"title":"Grattamacco 2013 Rosso  (Bolgheri)","country":"Italy","winery":"Grattamacco","color":"Red","year":2013,"geocode":{"lat":43.18685809999999,"lng":10.6279492},"address":"Loc. Lungagnano, 128, 57022 Castagneto Carducci LI, Italy"},{"title":"Atwater 2012 Pinot Noir (Finger Lakes)","country":"US","winery":"Atwater","color":"Red","year":2012,"geocode":{"lat":42.47848210000001,"lng":-76.869326},"address":"5055 NY-414, Burdett, NY 14818, USA"},{"title":"Bernard Magrez 2012 Château Pérenne  (Blaye Côtes de Bordeaux)","country":"France","winery":"Bernard Magrez","color":"Red","year":2012,"geocode":{"lat":45.07799920000001,"lng":-0.0097532},"address":"33230 Saint-Christophe-de-Double, France"},{"title":"Brian Carter Cellars 2010 Tuttorosso Red (Yakima Valley)","country":"US","winery":"Brian Carter Cellars","color":"Red","year":2010,"geocode":{"lat":47.7529306,"lng":-122.1592548},"address":"17311 135th Ave NE STE A450, Woodinville, WA 98072, USA"},{"title":"Brian Carter Cellars 2011 Corrida Red (Yakima Valley)","country":"US","winery":"Brian Carter Cellars","color":"Red","year":2011,"geocode":{"lat":47.7529306,"lng":-122.1592548},"address":"17311 135th Ave NE STE A450, Woodinville, WA 98072, USA"},{"title":"Burnt Bridge 2012 Blend X Les Collines Vineyard Red (Walla Walla Valley (WA))","country":"US","winery":"Burnt Bridge","color":"Red","year":2012,"geocode":{"lat":45.632805,"lng":-122.670702},"address":"1500 Broadway St, Vancouver, WA 98663, USA"},{"title":"Château Belle-Vue 2012  Haut-Médoc","country":"France","winery":"Château Belle-Vue","color":"Red","year":2012,"geocode":{"lat":44.7558448,"lng":-0.4951042999999999},"address":"2 Chem. des Caperanis, 33360 Quinsac, France"},{"title":"Château Charmail 2012  Haut-Médoc","country":"France","winery":"Château Charmail","color":"Red","year":2012,"geocode":{"lat":45.284057,"lng":-0.7852519},"address":"Château Charmail, 33180 Saint-Seurin-de-Cadourne, France"},{"title":"Koenig Vineyards 2012 Cabernet Sauvignon-Syrah","country":"US","winery":"Koenig Vineyards","color":"Red","year":2012,"geocode":{"lat":43.60491,"lng":-116.82175},"address":"21452 Hoskins Rd, Caldwell, ID 83607, USA"},{"title":"La Torre 2010  Brunello di Montalcino","country":"Italy","winery":"La Torre","color":"Red","year":2010,"geocode":{"lat":37.6827778,"lng":-121.9047222},"address":"6025 W Las Positas Blvd, Pleasanton, CA 94588, USA"},{"title":"Two Vintners 2012 Some Days Are Diamonds Syrah (Horse Heaven Hills)","country":"US","winery":"Two Vintners","color":"Red","year":2012,"geocode":{"lat":47.762217,"lng":-122.149703},"address":"18570 142nd Ave NE, Woodinville, WA 98072, USA"},{"title":"Villa Poggio Salvi 2010 Pomona  (Brunello di Montalcino)","country":"Italy","winery":"Villa Poggio Salvi","color":"Red","year":2010,"geocode":{"lat":43.0470506,"lng":11.4375174},"address":"Strada Provinciale 103 di, località poggio salvi, 53024 Castiglion del Bosco SI, Italy"},{"title":"Macari 2010 Dos Aguas Red (North Fork of Long Island)","country":"US","winery":"Macari","color":"Red","year":2010,"geocode":{"lat":40.986564,"lng":-72.568006},"address":"150 Bergen Ave, Mattituck, NY 11952, USA"},{"title":"Northwest Cellars 2010 Coyote Canyon Vineyard Syrah (Horse Heaven Hills)","country":"US","winery":"Northwest Cellars","color":"Red","year":2010,"geocode":{"lat":47.706254,"lng":-122.1782373},"address":"11909 124th Ave NE, Kirkland, WA 98034, USA"},{"title":"Autoritas 2013 Gran Reserva Shiraz (Colchagua Valley)","country":"Chile","winery":"Autoritas","color":"Red","year":2013,"geocode":{"lat":28.1080533,"lng":-81.9746665},"address":"5100 US Hwy 98 N, Lakeland, FL 33809, USA"},{"title":"Beresan 2012 Merlot (Walla Walla Valley (WA))","country":"US","winery":"Beresan","color":"Red","year":2012,"geocode":{"lat":46.00699960000001,"lng":-118.3815932},"address":"4169 Peppers Bridge Rd, Walla Walla, WA 99362, USA"},{"title":"Bersano 2013 Costalunga  (Barbera d'Asti)","country":"Italy","winery":"Bersano","color":"Red","year":2013,"geocode":{"lat":44.7732208,"lng":8.3605358},"address":"Piazza Dante, 21, 14049 Nizza Monferrato AT, Italy"},{"title":"Bishop's Peak 2013 Pinot Noir (San Luis Obispo County)","country":"US","winery":"Bishop's Peak","color":"Red","year":2013,"geocode":{"lat":35.3024744,"lng":-120.6973949},"address":"Bishop Peak, San Luis Obispo, CA 93405, USA"},{"title":"Bunnell 2009 Clifton Hill Vineyard Syrah (Wahluke Slope)","country":"US","winery":"Bunnell","color":"Red","year":2009,"geocode":{"lat":47.7693282,"lng":-122.1502668},"address":"19501 144th Ave NE C-800, Woodinville, WA 98072, USA"},{"title":"Château Magnan-Figeac 2012  Saint-Émilion","country":"France","winery":"Château Magnan-Figeac","color":"Red","year":2012,"geocode":{"lat":44.9058678,"lng":-0.1902043},"address":"3 Cormeil, 33330 Saint-Émilion, France"},{"title":"Silvano Bolmida 2011 Bussia  (Barolo)","country":"Italy","winery":"Silvano Bolmida","color":"Red","year":2011,"geocode":{"lat":44.5985915,"lng":7.968622399999999},"address":"Località Bussia 27/A, 12065 Monforte D'alba CN, Italy"},{"title":"Stefania Mezzetti 2012 Principe Syrah (Cortona)","country":"Italy","winery":"Stefania Mezzetti","color":"Red","year":2012,"geocode":{"lat":43.2106968,"lng":12.0957226},"address":"loc. Vernazzano Basso, 06069 Vernazzano PG, Italy"},{"title":"Tenute dei Vallarino 2012 La Ladra  (Barbera d'Asti Superiore)","country":"Italy","winery":"Tenute dei Vallarino","color":"Red","year":2012},{"title":"Michele Chiarlo 2013 Le Orme  (Barbera d'Asti Superiore)","country":"Italy","winery":"Michele Chiarlo","color":"Red","year":2013,"geocode":{"lat":44.7313458,"lng":8.3213819},"address":"Strada Nizza-Canelli, 99, 14042 Calamandrana AT, Italy"},{"title":"Monterebro 2013 Barrica Red (Jumilla)","country":"Spain","winery":"Monterebro","color":"Red","year":2013,"geocode":{"lat":38.4784418,"lng":-1.323895},"address":"C. Bo. Iglesias, 55, 30520 Jumilla, Murcia, Spain"},{"title":"Poderi Luigi Einaudi 2013  Dogliani","country":"Italy","winery":"Poderi Luigi Einaudi","color":"Red","year":2013,"geocode":{"lat":44.5217189,"lng":7.946848},"address":"Borgata Gombe, 31/32, 12063 Dogliani CN, Italy"},{"title":"Pomum 2012 Syrah (Columbia Valley (WA))","country":"US","winery":"Pomum","color":"Red","year":2012,"geocode":{"lat":47.761911,"lng":-122.149475},"address":"18512 142nd Ave NE, Woodinville, WA 98072, USA"},{"title":"Boyle MacDonald 2013 Petite Sirah (Sierra Foothills)","country":"US","winery":"Boyle MacDonald","color":"Red","year":2013,"geocode":{"lat":38.137878,"lng":-120.4649485},"address":"448B Main St, Murphys, CA 95247, USA"},{"title":"Castel Boglione 2011  Barolo","country":"Italy","winery":"Castel Boglione","color":"Red","year":2011,"geocode":{"lat":44.7211309,"lng":8.3832214},"address":"Viale Pietro, Viale Laudano, 2, 14040 Castel Boglione AT, Italy"},{"title":"Casa Santos Lima 2015 Reserva do Monte Red (Lisboa)","country":"Portugal","winery":"Casa Santos Lima","color":"Red","year":2015,"geocode":{"lat":39.069947,"lng":-9.118017},"address":"Quinta da Boavista, 2580-081, Portugal"},{"title":"Caves Transmontanas 2011 Vertice Grande Reserva Red (Douro)","country":"Portugal","winery":"Caves Transmontanas","color":"Red","year":2011,"geocode":{"lat":41.260544,"lng":-7.46993},"address":"R. de São Domingos 22, 5070 Alijó, Portugal"},{"title":"Château de Bordes-Quancard 2014  Bordeaux","country":"France","winery":"Château de Bordes-Quancard","color":"Red","year":2014,"geocode":{"lat":44.947206,"lng":-0.46828},"address":"87 Av. Gustave Eiffel, 33440 Saint-Vincent-de-Paul, France"},{"title":"Château du Roc 2012  Castillon Côtes de Bordeaux","country":"France","winery":"Château du Roc","color":"Red","year":2012,"geocode":{"lat":43.201362,"lng":2.6783928},"address":"La grange, 11700 Montbrun-des-Corbières, France"},{"title":"Château Haut Beyzac 2014 Classic  (Haut-Médoc)","country":"France","winery":"Château Haut Beyzac","color":"Red","year":2014,"geocode":{"lat":45.2636051,"lng":-0.8119818},"address":"château Beyzac, 33180 Vertheuil, France"},{"title":"Château Montaiguillon 2014  Montagne-Saint-Émilion","country":"France","winery":"Château Montaiguillon","color":"Red","year":2014},{"title":"Firesteed 2014 Pinot Noir (Willamette Valley)","country":"US","winery":"Firesteed","color":"Red","year":2014,"geocode":{"lat":45.2799641,"lng":-123.0311759},"address":"8380 NE Worden Hill Rd, Dundee, OR 97115, USA"},{"title":"Denario 2010 Reserva Malbec (Río Negro Valley)","country":"Argentina","winery":"Denario","color":"Red","year":2010},{"title":"Doña Paula 2014 Estate Malbec (Uco Valley)","country":"Argentina","winery":"Doña Paula","color":"Red","year":2014,"geocode":{"lat":-33.2511736,"lng":-68.94094},"address":"Luján de Cuyo, Mendoza Province, Argentina"},{"title":"Fenestra 2012 Silvaspoons Vineyard Malbec (Lodi)","country":"US","winery":"Fenestra","color":"Red","year":2012,"geocode":{"lat":37.6418073,"lng":-121.7959684},"address":"83 Vallecitos Rd, Livermore, CA 94550, USA"},{"title":"Fosso Corno 2014 Mayro  (Montepulciano d'Abruzzo)","country":"Italy","winery":"Fosso Corno","color":"Red","year":2014,"geocode":{"lat":42.81751500000001,"lng":13.768854},"address":"Loc. Villa Bizzarri, 64010 Torano Nuovo TE, Italy"},{"title":"Quinta do Pôpa 2011 Pôpa Vinhas Velhas Red (Douro)","country":"Portugal","winery":"Quinta do Pôpa","color":"Red","year":2011,"geocode":{"lat":41.1536111,"lng":-7.6011111},"address":"N222, 5120-011, Portugal"},{"title":"The Archivist 2014 Pinot Noir (Monterey County)","country":"US","winery":"The Archivist","color":"Red","year":2014},{"title":"White Rose 2014 The Neo-Classical Objective Pinot Noir (Willamette Valley)","country":"US","winery":"White Rose","color":"Red","year":2014,"geocode":{"lat":45.2616612,"lng":-123.0671705},"address":"6250 NE Hilltop Ln, Dayton, OR 97114, USA"},{"title":"ZinPhomaniac 2014 Old Vines Reserve Zinfandel (Sonoma County)","country":"US","winery":"ZinPhomaniac","color":"Red","year":2014,"geocode":{"lat":39.2005594,"lng":-123.2125428},"address":"501 Parducci Rd, Ukiah, CA 95482, USA"},{"title":"McManis 2015 Merlot (California)","country":"US","winery":"McManis","color":"Red","year":2015,"geocode":{"lat":37.75722510000001,"lng":-121.0790518},"address":"18700 E River Rd, Ripon, CA 95366, USA"},{"title":"Château Fongaban 2011  Castillon Côtes de Bordeaux","country":"France","winery":"Château Fongaban","color":"Red","year":2011,"geocode":{"lat":44.9170399,"lng":-0.0916232},"address":"Domaines Taïx, 33570 Puisseguin, France"},{"title":"Château Tour Haut-Caussan 2011  Médoc","country":"France","winery":"Château Tour Haut-Caussan","color":"Red","year":2011,"geocode":{"lat":45.3218281,"lng":-0.8767505999999999},"address":"27 Bis Rue de Verdun, 33340 Blaignan-Prignac, France"},{"title":"Cinnabar 2011 Mercury Rising Red (California)","country":"US","winery":"Cinnabar","color":"Red","year":2011},{"title":"Dão Sul 2011 Cabriz Colheita Seleccionada Red (Dão)","country":"Portugal","winery":"Dão Sul","color":"Red","year":2011,"geocode":{"lat":40.4233963,"lng":-8.0018954},"address":"Quinta Das Sarzedas, Currelos Aptd. 28, Carregal Do Sal, Viseu, 3430-211 Carregal do Sal, Portugal"},{"title":"Duck Pond 2012 Fries Family Cellars Pinot Noir (Oregon)","country":"US","winery":"Duck Pond","color":"Red","year":2012,"geocode":{"lat":45.2902083,"lng":-122.9995339},"address":"23145 OR-99W, Dundee, OR 97115, USA"},{"title":"Flora Springs 2011 Trilogy Red (Napa Valley)","country":"US","winery":"Flora Springs","color":"Red","year":2011,"geocode":{"lat":38.48827,"lng":-122.449789},"address":"677 St Helena Hwy, St Helena, CA 94574, USA"},{"title":"Gnarly Head 2011 Old Vine Zinfandel (Lodi)","country":"US","winery":"Gnarly Head","color":"Red","year":2011,"geocode":{"lat":37.854396,"lng":-121.2190972},"address":"12001 CA-99, Manteca, CA 95336, USA"},{"title":"Adega Cooperativa do Cartaxo 2011 Bridão Clássico Red (Tejo)","country":"Portugal","winery":"Adega Cooperativa do Cartaxo","color":"Red","year":2011,"geocode":{"lat":39.1550646,"lng":-8.8096258},"address":"Adega do Cartaxo - EN. 365-2, 2070-220 Cartaxo, Portugal"},{"title":"Herdade das Servas 2012 Monte das Servas Escolha Red (Alentejano)","country":"Portugal","winery":"Herdade das Servas","color":"Red","year":2012,"geocode":{"lat":38.8364455,"lng":-7.6782296},"address":"Estrada Nacional n.º 4 Km 136.4, 7100-600 São Bento do Ameixial, Portugal"},{"title":"Longevity 2010 Zinfandel (Lodi)","country":"US","winery":"Longevity","color":"Red","year":2010,"geocode":{"lat":37.6759437,"lng":-121.7192298},"address":"2271 S Vasco Rd b, Livermore, CA 94550, USA"},{"title":"Moniker 2012 Pinot Noir (Mendocino County)","country":"US","winery":"Moniker","color":"Red","year":2012,"geocode":{"lat":39.1997536,"lng":-123.2122641},"address":"501 Parducci Rd, Ukiah, CA 95482, USA"},{"title":"Pech Merle 2011 Merlot (Alexander Valley)","country":"US","winery":"Pech Merle","color":"Red","year":2011,"geocode":{"lat":38.7061639,"lng":-122.9038419},"address":"21001 Geyserville Ave, Geyserville, CA 95441, USA"},{"title":"ZinPhomaniac 2012 Old Vines Zinfandel (Lodi)","country":"US","winery":"ZinPhomaniac","color":"Red","year":2012,"geocode":{"lat":39.2005594,"lng":-123.2125428},"address":"501 Parducci Rd, Ukiah, CA 95482, USA"},{"title":"Château les Ormes Sorbet 2011  Médoc","country":"France","winery":"Château les Ormes Sorbet","color":"Red","year":2011,"geocode":{"lat":45.3443829,"lng":-0.8477589999999999},"address":"20 Rue du Trois Juillet 1895, 33340 Couquèques, France"},{"title":"Château Vrai Caillou 2012  Bordeaux Supérieur","country":"France","winery":"Château Vrai Caillou","color":"Red","year":2012,"geocode":{"lat":44.7391854,"lng":0.0159716},"address":"Aux, Cailloux, 33790 Soussac, France"},{"title":"Tenimenti Famiglia Cavallero 2009 Bussia  (Barolo)","country":"Italy","winery":"Tenimenti Famiglia Cavallero","color":"Red","year":2009,"geocode":{"lat":44.9742304,"lng":8.265224},"address":"Regione Mezzena, 19, 14030 Scurzolengo AT, Italy"},{"title":"D'Arenberg 2010 Shipster's Rapture Single Vineyard Shiraz (McLaren Vale)","country":"Australia","winery":"D'Arenberg","color":"Red","year":2010,"geocode":{"lat":-35.19721639999999,"lng":138.5511368},"address":"Osborn Rd, McLaren Vale SA 5171, Australia"},{"title":"Markowitsch 2012 Reserve Pinot Noir (Carnuntum)","country":"Austria","winery":"Markowitsch","color":"Red","year":2012,"geocode":{"lat":48.0554417,"lng":16.7385521},"address":"Pfarrgasse 6, 2464 Göttlesbrunn, Austria"},{"title":"Silver 2010 Trentotto File Syrah (Santa Barbara County)","country":"US","winery":"Silver","color":"Red","year":2010,"geocode":{"lat":30.2475783,"lng":-98.53801229999999},"address":"8264 US-290, Johnson City, TX 78636, USA"},{"title":"Gebeshuber 2012 Grosse Reserve Red (Thermenregion)","country":"Austria","winery":"Gebeshuber","color":"Red","year":2012,"geocode":{"lat":48.0450386,"lng":16.2817143},"address":"Jubiläumsstraße 43, 2352 Gumpoldskirchen, Austria"},{"title":"Stolpman 2012 Angeli Syrah (Ballard Canyon)","country":"US","winery":"Stolpman","color":"Red","year":2012,"geocode":{"lat":34.6653361,"lng":-120.1142778},"address":"2434 Alamo Pintado Ave, Los Olivos, CA 93441, USA"},{"title":"Travaglini 2009 Il Sogno  (Gattinara)","country":"Italy","winery":"Travaglini","color":"Red","year":2009,"geocode":{"lat":45.617944,"lng":8.3563909},"address":"Via delle Vigne, 36, 13045 Gattinara VC, Italy"},{"title":"Vasse Felix 2011 Heytesbury Red (Margaret River)","country":"Australia","winery":"Vasse Felix","color":"Red","year":2011,"geocode":{"lat":-33.8224684,"lng":115.0377261},"address":"4357 Caves Rd, Wilyabrup WA 6280, Australia"},{"title":"Weninger 2012 Kirchholz Alte Reben Blaufränkisch (Mittelburgenland)","country":"Austria","winery":"Weninger","color":"Red","year":2012,"geocode":{"lat":47.5868975,"lng":16.5482945},"address":"Florianigasse 11, 7312 Horitschon, Austria"},{"title":"Northstar 2010 Merlot (Walla Walla Valley (WA))","country":"US","winery":"Northstar","color":"Red","year":2010,"geocode":{"lat":46.0121642,"lng":-118.3645695},"address":"1736 J B George Rd, Walla Walla, WA 99362, USA"},{"title":"Travaglini 2007 Riserva  (Gattinara)","country":"Italy","winery":"Travaglini","color":"Red","year":2007},{"title":"Anton Bauer 2012 Reserve Red (Wagram)","country":"Austria","winery":"Anton Bauer","color":"Red","year":2012,"geocode":{"lat":48.4430559,"lng":15.7893481},"address":"Neufang 42, 3483, Austria"},{"title":"Betz Family 2012 La Côte Rousse Syrah (Red Mountain)","country":"US","winery":"Betz Family","color":"Red","year":2012},{"title":"Peter Mertes 2015 Platinum Sweet Red Dornfelder (Rheinhessen)","country":"Germany","winery":"Peter Mertes","color":"Red","year":2015,"geocode":{"lat":49.9299507,"lng":7.058972},"address":"Bornwiese 4, 54470 Bernkastel-Kues, Germany"},{"title":"Rigal 2012 Château Beauvillain-Monpezat Malbec-Merlot (Cahors)","country":"France","winery":"Rigal","color":"Red","year":2012},{"title":"Wines & Winemakers 2015 Monte da Baía Red (Península de Setúbal)","country":"Portugal","winery":"Wines & Winemakers","color":"Red","year":2015,"geocode":{"lat":37.0325864,"lng":-95.62583590000001},"address":"701 W 11th St, Coffeyville, KS 67337, USA"},{"title":"Château Coutinel 2015 Il est des nôôôtres! Gamay","country":"France","winery":"Château Coutinel","color":"Red","year":2015,"geocode":{"lat":43.9069077,"lng":1.3484824},"address":"82370 Labastide-Saint-Pierre, France"},{"title":"Domaine Bousquet 2015 Reserve Made With Organic Grapes Pinot Noir (Tupungato)","country":"Argentina","winery":"Domaine Bousquet","color":"Red","year":2015,"geocode":{"lat":-33.4326609,"lng":-69.192421},"address":"Mendoza Province, Argentina"},{"title":"Quinta do Arrobe 2014 Oculto Red (Tejo)","country":"Portugal","winery":"Quinta do Arrobe","color":"Red","year":2014,"geocode":{"lat":39.4019845,"lng":-8.613296},"address":"2000 Casével, Portugal"},{"title":"Quinta dos Murças 2015 Assobio Red (Douro)","country":"Portugal","winery":"Quinta dos Murças","color":"Red","year":2015,"geocode":{"lat":41.1530041,"lng":-7.6881314},"address":"Covelinhas, 5050-012 Quinta dos Murças, Portugal"},{"title":"Three Thieves 2014 Red (California)","country":"US","winery":"Three Thieves","color":"Red","year":2014},{"title":"Wines & Winemakers 2015 Companhia das Lezírias Herdade de Catapereiro Single Vineyard Red (Tejo)","country":"Portugal","winery":"Wines & Winemakers","color":"Red","year":2015,"geocode":{"lat":37.0325864,"lng":-95.62583590000001},"address":"701 W 11th St, Coffeyville, KS 67337, USA"},{"title":"Opta 2014 Red (Dão)","country":"Portugal","winery":"Opta","color":"Red","year":2014,"geocode":{"lat":44.051694,"lng":-121.3143764},"address":"11 NW Lava Rd, Bend, OR 97703, USA"},{"title":"Orsi Family Vineyards 2013 Barbera (Dry Creek Valley)","country":"US","winery":"Orsi Family Vineyards","color":"Red","year":2013,"geocode":{"lat":38.6045982,"lng":-122.8722986},"address":"2306 Magnolia Dr, Healdsburg, CA 95448, USA"},{"title":"Caparra & Siciliani 2012 Volvito Rosso  (Cirò Classico)","country":"Italy","winery":"Caparra & Siciliani","color":"Red","year":2012,"geocode":{"lat":18.4051404,"lng":-66.11376729999999},"address":"PR-2, Guaynabo, 00966, Puerto Rico"},{"title":"Amayna 2012 Pinot Noir (Leyda Valley)","country":"Chile","winery":"Amayna","color":"Red","year":2012,"geocode":{"lat":-33.6823801,"lng":-71.49733739999999},"address":"G - Chile 818, San Antonio, Valparaíso, Chile"},{"title":"Tres Palacios 2013 Reserve Merlot (Maipo Valley)","country":"Chile","winery":"Tres Palacios","color":"Red","year":2013,"geocode":{"lat":-33.4258498,"lng":-70.6185847},"address":"Magnere 1543, Providencia, Región Metropolitana, Chile"},{"title":"Viña Requingua 2014 Los Riscos Malbec (Curicó Valley)","country":"Chile","winery":"Viña Requingua","color":"Red","year":2014,"geocode":{"lat":-33.41633520000001,"lng":-70.6093712},"address":"Av. El Cerro 056, Providencia, Región Metropolitana, Chile"},{"title":"Mascarello Giuseppe e Figlio 2010 Villero  (Barolo)","country":"Italy","winery":"Mascarello Giuseppe e Figlio","color":"Red","year":2010,"geocode":{"lat":44.5690734,"lng":7.9172045},"address":"Località Borgonuovo, 108, 12060 Monchiero CN, Italy"},{"title":"Ponzi 2013 Madrona Pinot Noir (Willamette Valley)","country":"US","winery":"Ponzi","color":"Red","year":2013,"geocode":{"lat":45.3797401,"lng":-122.9363463},"address":"19500 SW Mountain Home Rd, Sherwood, OR 97140, USA"},{"title":"Sottimano 2010 Riserva  (Barbaresco)","country":"Italy","winery":"Sottimano","color":"Red","year":2010,"geocode":{"lat":44.7125547,"lng":8.0911476},"address":"Località Cottà, 21, 12052, 12052 Neive CN, Italy"},{"title":"Elvio Cogno 2010 Bricco Pernice  (Barolo)","country":"Italy","winery":"Elvio Cogno","color":"Red","year":2010,"geocode":{"lat":44.594701,"lng":7.9381747},"address":"Località Ravera, 2, 12060 Novello CN, Italy"},{"title":"Bruno Giacosa 2011 Falletto  (Barolo)","country":"Italy","winery":"Bruno Giacosa","color":"Red","year":2011,"geocode":{"lat":44.7219924,"lng":8.1169196},"address":"Via XX Settembre, 52, 12052 Borgonovo CN, Italy"},{"title":"Guido Porro 2011 Vigna S. Caterina  (Barolo)","country":"Italy","winery":"Guido Porro","color":"Red","year":2011,"geocode":{"lat":44.61405999999999,"lng":8.0014},"address":"Via Alba, 1, 12050 Serralunga D'alba CN, Italy"},{"title":"Ponzi 2013 Aurora Vineyard Pinot Noir (Willamette Valley)","country":"US","winery":"Ponzi","color":"Red","year":2013,"geocode":{"lat":45.3797401,"lng":-122.9363463},"address":"19500 SW Mountain Home Rd, Sherwood, OR 97140, USA"},{"title":"Brovia 2011 Brea Vigna Ca' Mia  (Barolo)","country":"Italy","winery":"Brovia","color":"Red","year":2011},{"title":"Castello di Verduno 2011 Massara  (Barolo)","country":"Italy","winery":"Castello di Verduno","color":"Red","year":2011,"geocode":{"lat":44.66712649999999,"lng":7.9334383},"address":"Via Umberto I', 9, 12060 Verduno CN, Italy"},{"title":"Cavallotto 2009 Vignolo Riserva  (Barolo)","country":"Italy","winery":"Cavallotto","color":"Red","year":2009,"geocode":{"lat":44.628496,"lng":7.977163},"address":"via Alba-Monforte 104, Bricco Boschis, 12060 Castiglione Falletto CN, Italy"},{"title":"Bruno Giacosa 2011 Albesani Vigna Santo Stefano  (Barbaresco)","country":"Italy","winery":"Bruno Giacosa","color":"Red","year":2011,"geocode":{"lat":44.7219924,"lng":8.1169196},"address":"Via XX Settembre, 52, 12052 Borgonovo CN, Italy"},{"title":"Tenute Silvio Nardi 2010  Brunello di Montalcino","country":"Italy","winery":"Tenute Silvio Nardi","color":"Red","year":2010,"geocode":{"lat":43.0991616,"lng":11.4049781},"address":"Localita' Casale Del Bosco, 53024 Montalcino SI, Italy"},{"title":"Chakana 2013 Ayni Malbec (Uco Valley)","country":"Argentina","winery":"Chakana","color":"Red","year":2013,"geocode":{"lat":-33.1755617,"lng":-68.9204211},"address":"Calle Baldini 16197, M5509 Lujan de Cuyo, Mendoza, Argentina"},{"title":"Musico 2010  Brunello di Montalcino","country":"Italy","winery":"Musico","color":"Red","year":2010,"geocode":{"lat":36.8802148,"lng":-119.8907175},"address":"36140 Ave 9, Madera, CA 93636, USA"},{"title":"PianCornello 2010  Brunello di Montalcino","country":"Italy","winery":"PianCornello","color":"Red","year":2010,"geocode":{"lat":42.977062,"lng":11.47794},"address":"125 Localita' Pod. Piancornello, Castelnuovo Dell'abate, Si 53024, 53024 Castelnuovo dell'Abate SI, Italy"},{"title":"Roblar 2013 Gold Collection Pinot Noir (Sta. Rita Hills)","country":"US","winery":"Roblar","color":"Red","year":2013,"geocode":{"lat":34.649,"lng":-120.096078},"address":"3010 Roblar Ave, Santa Ynez, CA 93460, USA"},{"title":"Anaba 2012 Soberanes Vineyard Pinot Noir (Santa Lucia Highlands)","country":"US","winery":"Anaba","color":"Red","year":2012,"geocode":{"lat":38.2361779,"lng":-122.4628207},"address":"62 Bonneau Rd, Sonoma, CA 95476, USA"},{"title":"Bellangelo 2012 Red (Seneca Lake)","country":"US","winery":"Bellangelo","color":"Red","year":2012,"geocode":{"lat":42.5665363,"lng":-76.9176791},"address":"150 Poplar Point Rd, Dundee, NY 14837, USA"},{"title":"Borra 2012 Old Vine Barbera Barbera (Lodi)","country":"US","winery":"Borra","color":"Red","year":2012},{"title":"San Lorenzo 2010 Bramante  (Brunello di Montalcino)","country":"Italy","winery":"San Lorenzo","color":"Red","year":2010,"geocode":{"lat":43.04358200000001,"lng":11.457409},"address":"podere San Lorenzo, 280, 53024 Montalcino SI, Italy"},{"title":"Silver 2010 Nebbiolo (Santa Barbara County)","country":"US","winery":"Silver","color":"Red","year":2010,"geocode":{"lat":30.2475783,"lng":-98.53801229999999},"address":"8264 US-290, Johnson City, TX 78636, USA"},{"title":"Tenuta Argentiera 2012 Poggio ai Ginepri  (Bolgheri)","country":"Italy","winery":"Tenuta Argentiera","color":"Red","year":2012,"geocode":{"lat":43.1286009,"lng":10.5652602},"address":"via Vecchia Aurelia 412A località i Pianali, 57022 Donoratico LI, Italy"},{"title":"Tenuta di Vaira 2011 Bolgherese  (Bolgheri Superiore)","country":"Italy","winery":"Tenuta di Vaira","color":"Red","year":2011,"geocode":{"lat":43.2004501,"lng":10.6136114},"address":"Strada Provinciale Bolgherese, 275, 57022 Bolgheri LI, Italy"},{"title":"Thurston Wolfe 2012 The Spaniard Premium Red (Columbia Valley (WA))","country":"US","winery":"Thurston Wolfe","color":"Red","year":2012,"geocode":{"lat":46.219493,"lng":-119.776163},"address":"588 Cabernet Ct, Prosser, WA 99350, USA"},{"title":"Verum 2013 Pinot Noir (Alto Valle del Río Negro)","country":"Argentina","winery":"Verum","color":"Red","year":2013,"geocode":{"lat":-38.9433218,"lng":-67.9216761},"address":"Mitre, Río Negro, Argentina"},{"title":"Château Lamothe-Bergeron 2012  Haut-Médoc","country":"France","winery":"Château Lamothe-Bergeron","color":"Red","year":2012,"geocode":{"lat":45.121561,"lng":-0.725858},"address":"49 Chem. des Graves, 33460 Cussac-Fort-Médoc, France"},{"title":"Château le Pape 2012  Pessac-Léognan","country":"France","winery":"Château le Pape","color":"Red","year":2012,"geocode":{"lat":44.7365311,"lng":-0.5672014},"address":"25 Chem. le Thil, 33850 Léognan, France"},{"title":"Château Les Trois Manoirs 2012  Médoc","country":"France","winery":"Château Les Trois Manoirs","color":"Red","year":2012,"geocode":{"lat":45.3351342,"lng":-0.9851152},"address":"2 Rte de Vendays, 33340 Gaillan-en-Médoc, France"},{"title":"Cheval Quancard 2012 1844  (Médoc)","country":"France","winery":"Cheval Quancard","color":"Red","year":2012,"geocode":{"lat":44.9145632,"lng":-0.4896164},"address":"La Mouline, 4 Rue du Carbouney, 33560 Carbon-Blanc, France"},{"title":"Corvus 2011 Petit Verdot (Red Mountain)","country":"US","winery":"Corvus","color":"Red","year":2011,"geocode":{"lat":46.0920326,"lng":-118.2716486},"address":"760 C St, Walla Walla, WA 99362, USA"},{"title":"Melrose 2009 Parker's Pinot Noir (Umpqua Valley)","country":"US","winery":"Melrose","color":"Red","year":2009},{"title":"Merrill Cellars 2009 Reserve Pinot Noir (Oregon)","country":"US","winery":"Merrill Cellars","color":"Red","year":2009,"geocode":{"lat":42.3136853,"lng":-122.9664972},"address":"220 E California St, Jacksonville, OR 97530, USA"},{"title":"Principi di Spadafora 2009 Don Pietro Red (Sicilia)","country":"Italy","winery":"Principi di Spadafora","color":"Red","year":2009,"geocode":{"lat":37.8953125,"lng":13.0303125},"address":"V2WJ+44 Fraccia, Camporeale, 90046 Monreale PA, Italy"},{"title":"Principi di Spadafora 2010 Syrah (Sicilia)","country":"Italy","winery":"Principi di Spadafora","color":"Red","year":2010,"geocode":{"lat":37.8953125,"lng":13.0303125},"address":"V2WJ+44 Fraccia, Camporeale, 90046 Monreale PA, Italy"},{"title":"Raptor Ridge 2010 Trig Pinot Noir (Willamette Valley)","country":"US","winery":"Raptor Ridge","color":"Red","year":2010,"geocode":{"lat":45.3852286,"lng":-122.9492007},"address":"18700 SW Hillsboro Hwy, Newberg, OR 97132, USA"},{"title":"Redhawk 2010 Pataccoli Family Vineyard Pinot Noir (Eola-Amity Hills)","country":"US","winery":"Redhawk","color":"Red","year":2010,"geocode":{"lat":44.984079,"lng":-123.0910861},"address":"2995 Michigan City Ln NW, Salem, OR 97304, USA"},{"title":"Redhawk 2010 Vintner's Reserve Pinot Noir (Willamette Valley)","country":"US","winery":"Redhawk","color":"Red","year":2010,"geocode":{"lat":44.984079,"lng":-123.0910861},"address":"2995 Michigan City Ln NW, Salem, OR 97304, USA"},{"title":"Tarara 2010 Nevaeh Red (Virginia)","country":"US","winery":"Tarara","color":"Red","year":2010,"geocode":{"lat":39.2365627,"lng":-77.4790012},"address":"13648 Tarara Ln, Leesburg, VA 20176, USA"},{"title":"Tenimenti Zabù 2010 Il Passo Nerello Mascalese (Sicilia)","country":"Italy","winery":"Tenimenti Zabù","color":"Red","year":2010},{"title":"Tenuta Rapitalà 2010 Nuhar Red (Sicilia)","country":"Italy","winery":"Tenuta Rapitalà","color":"Red","year":2010,"geocode":{"lat":37.9209757,"lng":13.0714772},"address":"Contrada Rapitalà, 90043, 90043 Camporeale PA, Italy"},{"title":"Vignerons de Bel Air 2011 Domaine de la Calèche  (Fleurie)","country":"France","winery":"Vignerons de Bel Air","color":"Red","year":2011,"geocode":{"lat":45.1095737,"lng":-72.8590423},"address":"1086 Rue Bruce, Dunham, QC J0E 1M0, Canada"},{"title":"Château de Gaudou 2010 Tradition Red (Cahors)","country":"France","winery":"Château de Gaudou","color":"Red","year":2010,"geocode":{"lat":44.483639,"lng":1.104329},"address":"Gaudou, 46700 Vire-sur-Lot, France"},{"title":"Château de Reynaud 2010  Côtes de Bourg","country":"France","winery":"Château de Reynaud","color":"Red","year":2010,"geocode":{"lat":45.0358391,"lng":-0.5268792999999999},"address":"1 lieu-dit, Reynaud, 33710 Bourg, France"},{"title":"Château de Sours 2010  Bordeaux","country":"France","winery":"Château de Sours","color":"Red","year":2010,"geocode":{"lat":44.823453,"lng":-0.272746},"address":"5 Au Vigneau, 33750 Saint-Quentin-de-Baron, France"},{"title":"Chehalem 2010 Three Vineyard Pinot Noir (Willamette Valley)","country":"US","winery":"Chehalem","color":"Red","year":2010,"geocode":{"lat":45.313505,"lng":-122.9168526},"address":"31190 NE Veritas Ln, Newberg, OR 97132, USA"},{"title":"Domaine des Nugues 2011  Beaujolais-Villages","country":"France","winery":"Domaine des Nugues","color":"Red","year":2011,"geocode":{"lat":46.1740387,"lng":4.7147724},"address":"Domaine des Nugues, Les Pasquiers, 40 rue de la Serve, 69220 Lancié, France"},{"title":"Erath 2010 Leland Pinot Noir (Willamette Valley)","country":"US","winery":"Erath","color":"Red","year":2010,"geocode":{"lat":45.5308628,"lng":-122.6863239},"address":"1439 NW Marshall St, Portland, OR 97209, USA"},{"title":"Feudi di San Marzano 2009 Sessantanni Old Vines  (Primitivo di Manduria)","country":"Italy","winery":"Feudi di San Marzano","color":"Red","year":2009,"geocode":{"lat":40.4609508,"lng":17.496714},"address":"Via Mons. A. Bello, 9, 74020 San Marzano di San Giuseppe TA, Italy"},{"title":"Calatrasi 2006 La Piazza Primitivo (Puglia)","country":"Italy","winery":"Calatrasi","color":"Red","year":2006,"geocode":{"lat":37.9404602,"lng":13.1646747},"address":"Contrada Piano Piraino, San Cipirello, PA 90040, 90040 San Cipirello PA, Italy"},{"title":"Canoe Ridge 2005 Syrah (Horse Heaven Hills)","country":"US","winery":"Canoe Ridge","color":"Red","year":2005,"geocode":{"lat":46.06766469999999,"lng":-118.3381224},"address":"45 E Main St, Walla Walla, WA 99362, USA"},{"title":"Columbia Crest 2006 Grand Estates Shiraz (Columbia Valley (WA))","country":"US","winery":"Columbia Crest","color":"Red","year":2006,"geocode":{"lat":45.9570837,"lng":-119.6095194},"address":"178810 WA-221, Paterson, WA 99345, USA"},{"title":"De Loach 2006 Maboroshi Vineyard Pinot Noir (Russian River Valley)","country":"US","winery":"De Loach","color":"Red","year":2006,"geocode":{"lat":38.4624861,"lng":-122.8200083},"address":"1791 Olivet Rd, Santa Rosa, CA 95401, USA"},{"title":"DFJ Vinhos 2005 Monte Alentejano Reserva Red (Alentejano)","country":"Portugal","winery":"DFJ Vinhos","color":"Red","year":2005,"geocode":{"lat":39.1531575,"lng":-8.733550000000001},"address":"2070-681 Vila Chã de Ourique, Portugal"},{"title":"Capo Soprano 2006 Nero d'Avola (Sicilia)","country":"Italy","winery":"Capo Soprano","color":"Red","year":2006,"geocode":{"lat":38.6795554,"lng":-122.8878575},"address":"300 Via Archimedes, Geyserville, CA 95441, USA"},{"title":"Feudo Principi di Butera 2006 Nero d'Avola (Sicilia)","country":"Italy","winery":"Feudo Principi di Butera","color":"Red","year":2006,"geocode":{"lat":37.2175056,"lng":14.0631594},"address":"Feudo Principi di Butera, Contrada Deliella, 93011 Butera CL, Italy"},{"title":"Vitae 2006 Negroamaro (Puglia)","country":"Italy","winery":"Vitae","color":"Red","year":2006},{"title":"La Posta 2006 Angel Paulucci Vineyard Malbec (Mendoza)","country":"Argentina","winery":"La Posta","color":"Red","year":2006},{"title":"Tenuta Rapitalà 2007 Campo Reale Nero d'Avola (Sicilia)","country":"Italy","winery":"Tenuta Rapitalà","color":"Red","year":2007,"geocode":{"lat":37.9209757,"lng":13.0714772},"address":"Contrada Rapitalà, 90043, 90043 Camporeale PA, Italy"},{"title":"Terrazas de Los Andes 2006 Reserva Malbec (Mendoza)","country":"Argentina","winery":"Terrazas de Los Andes","color":"Red","year":2006,"geocode":{"lat":-33.0821799,"lng":-68.8964474},"address":"Cochabamba y Thames, M5509 Luján de Cuyo, Mendoza, Argentina"},{"title":"Quinta da Cortezia 2005 Vinha Conchas Red (Estremadura)","country":"Portugal","winery":"Quinta da Cortezia","color":"Red","year":2005,"geocode":{"lat":39.0848869,"lng":-9.098948799999999},"address":"R. do Casal 6, 2580 Aldeia Gavinha, Portugal"},{"title":"Susana Balbo 2007 Crios Malbec (Mendoza)","country":"Argentina","winery":"Susana Balbo","color":"Red","year":2007,"geocode":{"lat":-33.1154107,"lng":-68.9030964},"address":"Cochabamba 7801, M5509, Mendoza, Argentina"},{"title":"Symington Family Estates 2006 Altano Red (Douro)","country":"Portugal","winery":"Symington Family Estates","color":"Red","year":2006,"geocode":{"lat":41.1332188,"lng":-8.6169199},"address":"R. do Barão de Forrester 86, 4400-034 Vila Nova de Gaia, Portugal"},{"title":"Howling Wolves 2004 Shiraz (Margaret River)","country":"Australia","winery":"Howling Wolves","color":"Red","year":2004},{"title":"Talbott 2011 Sleepy Hollow Vineyard Pinot Noir (Santa Lucia Highlands)","country":"US","winery":"Talbott","color":"Red","year":2011},{"title":"Lost Angel 2009 Mischief Red (California)","country":"US","winery":"Lost Angel","color":"Red","year":2009},{"title":"Mount Pleasant Winery 2009 Bethlehem Valley Norton (Missouri)","country":"US","winery":"Mount Pleasant Winery","color":"Red","year":2009},{"title":"Bodega de Edgar 2010 Garnacha (Central Coast)","country":"US","winery":"Bodega de Edgar","color":"Red","year":2010,"geocode":{"lat":35.6458464,"lng":-120.6518754},"address":"3550 Combine St, Paso Robles, CA 93446, USA"},{"title":"San Simeon 2009 Petite Sirah (Paso Robles)","country":"US","winery":"San Simeon","color":"Red","year":2009,"geocode":{"lat":35.643626,"lng":-121.1917064},"address":"442 Slo San Simeon Rd, San Simeon, CA 93452, USA"},{"title":"Les Bourgeois 2010 Collector's Series Chambourcin (Missouri)","country":"US","winery":"Les Bourgeois","color":"Red","year":2010},{"title":"Midnight 2009 Estate Merlot (Paso Robles)","country":"US","winery":"Midnight","color":"Red","year":2009},{"title":"Pinot Patch 2012 Pinot Noir (California)","country":"US","winery":"Pinot Patch","color":"Red","year":2012,"geocode":{"lat":38.6690954,"lng":-91.46738219999999},"address":"1947 Frene Creek Rd, Hermann, MO 65041, USA"},{"title":"Rio Perdido 2011 Malbec (Mendoza)","country":"Argentina","winery":"Rio Perdido","color":"Red","year":2011,"geocode":{"lat":10.5928735,"lng":-85.2015914},"address":"Cam. al Hotel Rio Perdido Lodge, Provincia de Guanacaste, Bagaces, Costa Rica"},{"title":"Stanburn 2011 Chambourcin (Virginia)","country":"US","winery":"Stanburn","color":"Red","year":2011,"geocode":{"lat":36.5879357,"lng":-80.1960194},"address":"158 Conner Dr, Stuart, VA 24171, USA"},{"title":"Bodegas Valdemar 2012 Conde de Valdemar Rosado (Rioja)","country":"Spain","winery":"Bodegas Valdemar","color":"Red","year":2012,"geocode":{"lat":42.4988843,"lng":-2.4393149},"address":"Calle Camino Viejo Logroño, 24, 01320 Oion, Araba, Spain"},{"title":"Talbott 2011 Kali Hart Pinot Noir (Monterey)","country":"US","winery":"Talbott","color":"Red","year":2011,"geocode":{"lat":36.5562009,"lng":-121.923405},"address":"East Side of Lincoln St., between 5th &, 6th Ave, Carmel-By-The-Sea, CA 93921, USA"},{"title":"Origin 2011 Malbec (Mendoza)","country":"Argentina","winery":"Origin","color":"Red","year":2011,"geocode":{"lat":25.6805547,"lng":-80.31684589999999},"address":"9700 S Dixie Hwy #840, Miami, FL 33156, USA"},{"title":"San Antonio 2009 Heritage Red (Paso Robles)","country":"US","winery":"San Antonio","color":"Red","year":2009,"geocode":{"lat":34.0637293,"lng":-118.223954},"address":"737 Lamar St, Los Angeles, CA 90031, USA"},{"title":"Cruz Alta 2011 Reserve Malbec (Mendoza)","country":"Argentina","winery":"Cruz Alta","color":"Red","year":2011,"geocode":{"lat":-33.0072364,"lng":-61.8094146},"address":"Cruz Alta, Cordoba, Argentina"},{"title":"State of Art 2011 Red (Monterey County)","country":"US","winery":"State of Art","color":"Red","year":2011,"geocode":{"lat":39.1934653,"lng":-96.67818079999999},"address":"1745 Wildcat Creek Rd, Manhattan, KS 66503, USA"},{"title":"Lapis Luna 2012 Merlot (North Coast)","country":"US","winery":"Lapis Luna","color":"Red","year":2012,"geocode":{"lat":34.4705411,"lng":-117.2410894},"address":"19341 Bear Valley Rd, Apple Valley, CA 92308, USA"},{"title":"Lapis Luna 2012 Romanza Moon Shoup Vineyard Zinfandel (Lodi)","country":"US","winery":"Lapis Luna","color":"Red","year":2012,"geocode":{"lat":34.4705411,"lng":-117.2410894},"address":"19341 Bear Valley Rd, Apple Valley, CA 92308, USA"},{"title":"Oenophile Wines 2011 Oe-lixir Red Mélange Red (California)","country":"US","winery":"Oenophile Wines","color":"Red","year":2011},{"title":"MacRostie 2011 Pinot Noir (Sonoma Coast)","country":"US","winery":"MacRostie","color":"Red","year":2011,"geocode":{"lat":38.554578,"lng":-122.872684},"address":"4605 Westside Rd, Healdsburg, CA 95448, USA"},{"title":"Castle Rock 2012 Reserve Pinot Noir (Russian River Valley)","country":"US","winery":"Castle Rock","color":"Red","year":2012,"geocode":{"lat":33.79979600000001,"lng":-118.3897215},"address":"75 Malaga Cove Plaza #7, Palos Verdes Estates, CA 90274, USA"},{"title":"Orfila 2011 Full Fathom Five Red","country":"US","winery":"Orfila","color":"Red","year":2011},{"title":"Kirnbauer 2011 Blaufränkisch (Mittelburgenland)","country":"Austria","winery":"Kirnbauer","color":"Red","year":2011,"geocode":{"lat":47.59468210000001,"lng":16.6225234},"address":"Rotweinweg 1, 7301 Deutschkreutz, Austria"},{"title":"Zantho 2012 Zweigelt (Burgenland)","country":"Austria","winery":"Zantho","color":"Red","year":2012,"geocode":{"lat":47.7705832,"lng":17.0298638},"address":"Dammweg 1a, 7163 Andau, Austria"},{"title":"Round Hill 2011 Merlot (California)","country":"US","winery":"Round Hill","color":"Red","year":2011,"geocode":{"lat":39.1276856,"lng":-77.7873422},"address":"35246 Harry Byrd Hwy #190, Round Hill, VA 20141, USA"},{"title":"Fenestra 2009 Conjugation Red (Livermore Valley)","country":"US","winery":"Fenestra","color":"Red","year":2009,"geocode":{"lat":37.6418073,"lng":-121.7959684},"address":"83 Vallecitos Rd, Livermore, CA 94550, USA"},{"title":"Garces Silva 2012 Boya Pinot Noir (Leyda Valley)","country":"Chile","winery":"Garces Silva","color":"Red","year":2012,"geocode":{"lat":-33.6823801,"lng":-71.49733739999999},"address":"G - Chile 818, San Antonio, Valparaíso, Chile"},{"title":"Ascension Cellars 2010 Dalliance G-S-M (Paso Robles)","country":"US","winery":"Ascension Cellars","color":"Red","year":2010},{"title":"Claudia Springs 2010 Rhodes Vineyards Grenache (Redwood Valley)","country":"US","winery":"Claudia Springs","color":"Red","year":2010,"geocode":{"lat":39.131897,"lng":-123.5326015},"address":"California 95466, USA"},{"title":"La Rochelle 2009 Pinot Noir (Sonoma Coast)","country":"US","winery":"La Rochelle","color":"Red","year":2009},{"title":"Segal's 2013 Fusion Red (Galilee)","country":"Israel","winery":"Segal's","color":"Red","year":2013,"geocode":{"lat":32.8554346,"lng":-96.76935789999999},"address":"5757 Greenville Ave, Dallas, TX 75206, USA"},{"title":"St Hallett 2013 Black Clay Shiraz (Barossa)","country":"Australia","winery":"St Hallett","color":"Red","year":2013},{"title":"Wines & Winemakers 2013 Azul Portugal Reserva Red (Alentejano)","country":"Portugal","winery":"Wines & Winemakers","color":"Red","year":2013,"geocode":{"lat":37.0325864,"lng":-95.62583590000001},"address":"701 W 11th St, Coffeyville, KS 67337, USA"},{"title":"A.A. Badenhorst Family Wines 2012 Secateurs Red Blend Red (Swartland)","country":"South Africa","winery":"A.A. Badenhorst Family Wines","color":"Red","year":2012,"geocode":{"lat":-33.5439282,"lng":18.8185624},"address":"Jakkalsfontein Road, Malmesbury, 7300, South Africa"},{"title":"Darcie Kent Vineyards 2012 Pinot Noir (Monterey)","country":"US","winery":"Darcie Kent Vineyards","color":"Red","year":2012,"geocode":{"lat":37.6659675,"lng":-121.7061218},"address":"7000 Tesla Rd, Livermore, CA 94550, USA"},{"title":"Sadie Family 2012 Pofadder Cinsault (Swartland)","country":"South Africa","winery":"Sadie Family","color":"Red","year":2012,"geocode":{"lat":-33.5251586,"lng":18.8048095},"address":"Babylons Toren Road, Paardeberg, Malmesbury, 7300, South Africa"},{"title":"Joseph Swan Vineyards 2012 Matthew's Station Vineyard Tannat (Russian River Valley)","country":"US","winery":"Joseph Swan Vineyards","color":"Red","year":2012,"geocode":{"lat":38.483276,"lng":-122.8493168},"address":"2916 Laguna Rd, Forestville, CA 95436, USA"},{"title":"Luis Duarte 2014 Rapariga da Quinta Colheita Seleccionada Red (Alentejano)","country":"Portugal","winery":"Luis Duarte","color":"Red","year":2014,"geocode":{"lat":42.5440246,"lng":-83.14504170000001},"address":"71 Park St, Troy, MI 48083, USA"},{"title":"Adelsheim 2013 Zenith Vineyard Pinot Noir (Eola-Amity Hills)","country":"US","winery":"Adelsheim","color":"Red","year":2013,"geocode":{"lat":45.3385536,"lng":-123.0496957},"address":"16800 NE Calkins Ln, Newberg, OR 97132, USA"},{"title":"Bernardus 2011 Marinus Red (Carmel Valley)","country":"US","winery":"Bernardus","color":"Red","year":2011,"geocode":{"lat":36.4791983,"lng":-121.7304897},"address":"5 W Carmel Valley Rd, Carmel Valley, CA 93924, USA"},{"title":"Joseph Jewell 2013 Alderpoint Vineyard Pinot Noir (Humboldt County)","country":"US","winery":"Joseph Jewell","color":"Red","year":2013,"geocode":{"lat":38.473521,"lng":-122.89102},"address":"6542 Front St, Forestville, CA 95436, USA"},{"title":"Materra Cunat Family Vineyards 2011 Midnight Red (Napa Valley)","country":"US","winery":"Materra Cunat Family Vineyards","color":"Red","year":2011,"geocode":{"lat":38.3618081,"lng":-122.3121571},"address":"4326 Big Ranch Rd, Napa, CA 94558, USA"},{"title":"Carlson Creek 2012 Sangiovese (Cochise County)","country":"US","winery":"Carlson Creek","color":"Red","year":2012,"geocode":{"lat":33.4956085,"lng":-111.9292911},"address":"4142 N Marshall Way, Scottsdale, AZ 85251, USA"},{"title":"Cenay 2011 Rodgers Vineyard Pinot Noir (Napa Valley)","country":"US","winery":"Cenay","color":"Red","year":2011,"geocode":{"lat":21.5083609,"lng":-104.8981042},"address":"Javier Mina 262, Centro, 63000 Tepic, Nay., Mexico"},{"title":"Nevada Ridge 2011 Syrah (Nevada)","country":"US","winery":"Nevada Ridge","color":"Red","year":2011,"geocode":{"lat":36.1927909,"lng":-115.9449844},"address":"3800 Winery Rd, Pahrump, NV 89048, USA"},{"title":"Marilyn 2012 Meritage (Napa Valley)","country":"US","winery":"Marilyn","color":"Red","year":2012,"geocode":{"lat":38.18212700000001,"lng":-77.976293},"address":"16234 Marquis Rd, Orange, VA 22960, USA"},{"title":"Emiliana 2013 Natura Malbec (Rapel Valley)","country":"Chile","winery":"Emiliana","color":"Red","year":2013,"geocode":{"lat":-33.3646486,"lng":-71.3124648},"address":"RUTA 68 Y RUTA F-870 Casablanca, Valparaíso, Casablanca, Valparaíso, Chile"},{"title":"Falernia 2013 Reserva Pinot Noir (Elqui Valley)","country":"Chile","winery":"Falernia","color":"Red","year":2013,"geocode":{"lat":-30.0291286,"lng":-70.804406},"address":"Vicuña, Coquimbo, Chile"},{"title":"Arché 2012 Syrah (Texoma)","country":"US","winery":"Arché","color":"Red","year":2012,"geocode":{"lat":33.775576,"lng":-97.5101499},"address":"228 Wagner Rd, St Jo, TX 76265, USA"},{"title":"Quintay 2014 Q Grand Reserve Pinot Noir (Casablanca Valley)","country":"Chile","winery":"Quintay","color":"Red","year":2014,"geocode":{"lat":-33.3558103,"lng":-71.3298582},"address":"Casablanca, Valparaíso, Chile"},{"title":"Stony Lonesome 2013 Estate Reserve Barbera (Finger Lakes)","country":"US","winery":"Stony Lonesome","color":"Red","year":2013},{"title":"Falernia 2014 Reserva Pedro Ximénez (Elqui Valley)","country":"Chile","winery":"Falernia","color":"Red","year":2014,"geocode":{"lat":-30.0291286,"lng":-70.804406},"address":"Vicuña, Coquimbo, Chile"},{"title":"Heron 2013 Pinot Noir (California)","country":"US","winery":"Heron","color":"Red","year":2013,"geocode":{"lat":37.8000818,"lng":-122.4406198},"address":"2269 Chestnut St, San Francisco, CA 94123, USA"},{"title":"Carpineto 2008 Riserva  (Vino Nobile di Montepulciano)","country":"Italy","winery":"Carpineto","color":"Red","year":2008,"geocode":{"lat":43.595557,"lng":11.3860055},"address":"SP 16 Chianti-Valdarno, 50022 Greve FI, Italy"},{"title":"Casca Wines 2010 Monte Cascas Reserva Red (Douro)","country":"Portugal","winery":"Casca Wines","color":"Red","year":2010,"geocode":{"lat":38.7086727,"lng":-9.3967367},"address":"Av. Gen. Carmona nº2, 2765-207 Estoril, Portugal"},{"title":"Casey Flat Ranch 2010 Estate Red (Capay Valley)","country":"US","winery":"Casey Flat Ranch","color":"Red","year":2010,"geocode":{"lat":38.82919649999999,"lng":-122.1928955},"address":"Guinda, CA 95637, USA"},{"title":"Castello di Cacchiano 2007 Millennio  (Chianti Classico)","country":"Italy","winery":"Castello di Cacchiano","color":"Red","year":2007,"geocode":{"lat":43.4125695,"lng":11.426131},"address":"Località Cacchiano, 53013 Gaiole in Chianti SI, Italy"},{"title":"Watermill 2009 Syrah (Walla Walla Valley (OR))","country":"US","winery":"Watermill","color":"Red","year":2009,"geocode":{"lat":45.9379787,"lng":-118.391477},"address":"235 E Broadway Ave #1807, Milton-Freewater, OR 97862, USA"},{"title":"Wines & Winemakers 2012 Lua Cheia em Vinhas Velhas Red (Douro)","country":"Portugal","winery":"Wines & Winemakers","color":"Red","year":2012,"geocode":{"lat":37.0325864,"lng":-95.62583590000001},"address":"701 W 11th St, Coffeyville, KS 67337, USA"},{"title":"Boas Quintas 2009 Quinta da Fonte do Ouro Touriga Nacional (Dão)","country":"Portugal","winery":"Boas Quintas","color":"Red","year":2009},{"title":"Finca Casa Lo Alto 2009 Reserva Red (Utiel-Requena)","country":"Spain","winery":"Finca Casa Lo Alto","color":"Red","year":2009,"geocode":{"lat":39.4378217,"lng":-1.3207711},"address":"CV452, 2, 46311 Venta del Moro, Valencia, Spain"},{"title":"Yarra Yering 2009 Pinot Noir (Yarra Valley)","country":"Australia","winery":"Yarra Yering","color":"Red","year":2009},{"title":"Waltzing Bear 2005 Cargasacchi Jalama Vineyard Pinot Noir (Santa Barbara County)","country":"US","winery":"Waltzing Bear","color":"Red","year":2005,"geocode":{"lat":34.273585,"lng":-118.5549543},"address":"19360 Rinaldi St #426, Porter Ranch, CA 91326, USA"},{"title":"Zefina 2005 Zinfandel (Horse Heaven Hills)","country":"US","winery":"Zefina","color":"Red","year":2005,"geocode":{"lat":47.6079959,"lng":-122.3350082},"address":"1225 4th Ave, Seattle, WA 98101, USA"},{"title":"McPrice Myers 2006 L'Ange Rouge Grenache (Santa Barbara County)","country":"US","winery":"McPrice Myers","color":"Red","year":2006,"geocode":{"lat":35.6556886,"lng":-120.7577145},"address":"3525 Adelaida Rd, Paso Robles, CA 93446, USA"},{"title":"Morrison Lane 2005 Sangiovese (Walla Walla Valley (WA))","country":"US","winery":"Morrison Lane","color":"Red","year":2005,"geocode":{"lat":46.0654416,"lng":-118.3419489},"address":"201 W Main St, Walla Walla, WA 99362, USA"},{"title":"Roncolato 2005  Amarone della Valpolicella","country":"Italy","winery":"Roncolato","color":"Red","year":2005,"geocode":{"lat":45.4427818,"lng":11.2372542},"address":"Via Carcera, 21, 37038 Soave VR, Italy"},{"title":"Calafia 2005 Meritage (Napa Valley)","country":"US","winery":"Calafia","color":"Red","year":2005},{"title":"Brander 2006 Bouchet Red (Santa Ynez Valley)","country":"US","winery":"Brander","color":"Red","year":2006,"geocode":{"lat":34.6573086,"lng":-120.0983387},"address":"2401 N Refugio Rd, Santa Ynez, CA 93460, USA"},{"title":"Chaltén 2007 Reserva Pinot Noir (Mendoza)","country":"Argentina","winery":"Chaltén","color":"Red","year":2007,"geocode":{"lat":-49.3315749,"lng":-72.886101},"address":"Lago del Desierto 265, El Chalten, Santa Cruz, Argentina"},{"title":"Alexander Valley Vineyards 2006 Sin Zin Zinfandel (Alexander Valley)","country":"US","winery":"Alexander Valley Vineyards","color":"Red","year":2006,"geocode":{"lat":38.65649,"lng":-122.786907},"address":"8644 CA-128, Healdsburg, CA 95448, USA"},{"title":"Anglim 2006 Grenache (Paso Robles)","country":"US","winery":"Anglim","color":"Red","year":2006,"geocode":{"lat":35.5734441,"lng":-120.6965222},"address":"3340 Ramada Dr Suite D, Paso Robles, CA 93446, USA"},{"title":"Sartori 2004 Estate Collection  (Amarone della Valpolicella)","country":"Italy","winery":"Sartori","color":"Red","year":2004,"geocode":{"lat":45.5042061,"lng":10.9345166},"address":"Via Casette, 4, 37024 Arbizzano-Santa Maria VR, Italy"},{"title":"Tierra Prometida 2008 Clasico Bonarda (Mendoza)","country":"Argentina","winery":"Tierra Prometida","color":"Red","year":2008,"geocode":{"lat":-38.0048791,"lng":-57.61531379999999},"address":"B7611 Mar del Plata, Buenos Aires Province, Argentina"},{"title":"Il Valentiano 2008 Campo di Marzo  (Rosso di Montalcino)","country":"Italy","winery":"Il Valentiano","color":"Red","year":2008,"geocode":{"lat":43.0357812,"lng":11.4488486},"address":"Località Mocali, 53024 Montalcino SI, Italy"},{"title":"XYZin 2009 Vine Age Series Zinfandel (California)","country":"US","winery":"XYZin","color":"Red","year":2009,"geocode":{"lat":38.71544799999999,"lng":-122.923078},"address":"22281 Chianti Rd, Geyserville, CA 95441, USA"},{"title":"Colby Red 2010 Red (California)","country":"US","winery":"Colby Red","color":"Red","year":2010,"geocode":{"lat":46.0567213,"lng":-118.5827991},"address":"11920 US-12, Lowden, WA 99360, USA"},{"title":"Cortijo 2010 Cortijo III  (Rioja)","country":"Spain","winery":"Cortijo","color":"Red","year":2010,"geocode":{"lat":36.7863632,"lng":-5.1006865},"address":"Ctra. Campillos, Km. 35, 29400 Ronda, Málaga, Spain"},{"title":"Laberinto 2009 Malbec (Mendoza)","country":"Argentina","winery":"Laberinto","color":"Red","year":2009,"geocode":{"lat":38.6965385,"lng":-91.4464771},"address":"1110 Stone Hill Hwy, Hermann, MO 65041, USA"},{"title":"Manos Negras 2010 Malbec (Mendoza)","country":"Argentina","winery":"Manos Negras","color":"Red","year":2010,"geocode":{"lat":40.855812,"lng":-73.2028045},"address":"220 W Main St, Smithtown, NY 11787, USA"},{"title":"Pomar Junction 2010 Brooster Fighting Red Red (Paso Robles)","country":"US","winery":"Pomar Junction","color":"Red","year":2010},{"title":"Bianchi 2011 Signature Selection Merlot (Paso Robles)","country":"US","winery":"Bianchi","color":"Red","year":2011,"geocode":{"lat":35.6501868,"lng":-120.5772404},"address":"3380 Branch Rd, Paso Robles, CA 93446, USA"},{"title":"Felix Lavaque 2010 Felix Malbec (Cafayate)","country":"Argentina","winery":"Felix Lavaque","color":"Red","year":2010,"geocode":{"lat":-34.68581229999999,"lng":-68.2398122},"address":"San Rafael, Mendoza Province, Argentina"},{"title":"Gaucho Andino 2011 Winemaker Selection Malbec (Mendoza)","country":"Argentina","winery":"Gaucho Andino","color":"Red","year":2011,"geocode":{"lat":30.378162,"lng":-98.05009299999999},"address":"21301 Kathy Ln, Spicewood, TX 78669, USA"},{"title":"Masseria Setteporte 2012 Rosso  (Etna)","country":"Italy","winery":"Masseria Setteporte","color":"Red","year":2012,"geocode":{"lat":41.8933038,"lng":-87.6399411},"address":"434 W Ontario St, Chicago, IL 60654, USA"},{"title":"Hanson Vineyards 2011 Pinot Noir (Willamette Valley)","country":"US","winery":"Hanson Vineyards","color":"Red","year":2011,"geocode":{"lat":45.098494,"lng":-122.742848},"address":"34948 S Barlow Rd, Woodburn, OR 97071, USA"},{"title":"Castillo de Maluenda 2011 Picos Pardos Fusión Garnacha (Calatayud)","country":"Spain","winery":"Castillo de Maluenda","color":"Red","year":2011},{"title":"Costantino 2013 DeAetna Red (Etna)","country":"Italy","winery":"Costantino","color":"Red","year":2013,"geocode":{"lat":38.41924220000001,"lng":-122.3888066},"address":"7415 St Helena Hwy, Napa, CA 94558, USA"},{"title":"Folin Cellars 2011 Petite Sirah (Rogue Valley)","country":"US","winery":"Folin Cellars","color":"Red","year":2011,"geocode":{"lat":42.505946,"lng":-122.992618},"address":"9200 Ramsey Rd, Gold Hill, OR 97525, USA"},{"title":"Gubinelli 2010 Malbec (Mendoza)","country":"Argentina","winery":"Gubinelli","color":"Red","year":2010,"geocode":{"lat":39.11836460000001,"lng":-77.2017743},"address":"20 Grand Corner Ave A, Gaithersburg, MD 20878, USA"},{"title":"Maimai 2011 Syrah (Hawke's Bay)","country":"New Zealand","winery":"Maimai","color":"Red","year":2011,"geocode":{"lat":38.656218,"lng":-122.8437964},"address":"1474 Alexander Valley Rd, Healdsburg, CA 95448, USA"},{"title":"Sweet Cheeks 2011 Barrel Select Tempranillo (Umpqua Valley)","country":"US","winery":"Sweet Cheeks","color":"Red","year":2011,"geocode":{"lat":43.9566698,"lng":-123.2791353},"address":"27007 Briggs Hill Rd, Eugene, OR 97405, USA"},{"title":"Lo Nuevo 2012 Vilata Old Vines Monastrell-Syrah (Jumilla)","country":"Spain","winery":"Lo Nuevo","color":"Red","year":2012,"geocode":{"lat":39.6026206,"lng":-104.7083313},"address":"6240 South Main Street L114 & L115, Aurora, CO 80016, USA"},{"title":"Pagos del Moncayo 2012 PdM Moncayo Garnacha (Campo de Borja)","country":"Spain","winery":"Pagos del Moncayo","color":"Red","year":2012,"geocode":{"lat":41.8295019,"lng":-1.6814776},"address":"Carretera, Z-372, Km 1, 6, 50580 Vera de Moncayo, Zaragoza, Spain"},{"title":"Trust 2013 Single Vineyard Series Lewis Vineyard Syrah (Columbia Valley (WA))","country":"US","winery":"Trust","color":"Red","year":2013,"geocode":{"lat":46.0919335,"lng":-118.2715403},"address":"760 C St, Walla Walla, WA 99362, USA"},{"title":"Domaine de Bellene 2014 Les Peuillets Premier Cru  (Savigny-lès-Beaune)","country":"France","winery":"Domaine de Bellene","color":"Red","year":2014,"geocode":{"lat":47.0292903,"lng":4.8400977},"address":"39 Rue du Faubourg Saint-Nicolas, 21200 Beaune, France"},{"title":"Foxen 2014 Pinot Noir (Sta. Rita Hills)","country":"US","winery":"Foxen","color":"Red","year":2014,"geocode":{"lat":34.8201921,"lng":-120.2302395},"address":"7600 Foxen Canyon Rd, Santa Maria, CA 93454, USA"},{"title":"JM Cellars 2013 Margaret's Vineyard Estate Red (Walla Walla Valley (WA))","country":"US","winery":"JM Cellars","color":"Red","year":2013,"geocode":{"lat":47.7317055,"lng":-122.155311},"address":"14404 137th Pl NE, Woodinville, WA 98072, USA"},{"title":"L. Tramier & Fils 2013 Collection  (Corton)","country":"France","winery":"L. Tramier & Fils","color":"Red","year":2013,"geocode":{"lat":46.838985,"lng":4.716182},"address":"14 Rue de Chamerose, 71640 Mercurey, France"},{"title":"Marisco Vineyards 2013 Craft Series The Journey Pinot Noir (Marlborough)","country":"New Zealand","winery":"Marisco Vineyards","color":"Red","year":2013,"geocode":{"lat":-41.5508607,"lng":173.7509904},"address":"169 Guernsey Road, Renwick 7271, New Zealand"},{"title":"Roche de Bellene 2014 Vieilles Vignes  (Savigny-lès-Beaune)","country":"France","winery":"Roche de Bellene","color":"Red","year":2014},{"title":"Soos Creek 2013 Artist Series #13 Red (Columbia Valley (WA))","country":"US","winery":"Soos Creek","color":"Red","year":2013},{"title":"Spann Vineyards 2012 Tempranillo (Lake County)","country":"US","winery":"Spann Vineyards","color":"Red","year":2012,"geocode":{"lat":38.4194617,"lng":-122.5518752},"address":"8910 Sonoma Hwy, Kenwood, CA 95452, USA"},{"title":"Tanner 2013 Estate Grown Petite Sirah (Sierra Foothills)","country":"US","winery":"Tanner","color":"Red","year":2013,"geocode":{"lat":38.137516,"lng":-120.464731},"address":"435 Main St, Murphys, CA 95247, USA"},{"title":"Uvaggio 2014 Radix Vinea Zinfandel (El Dorado)","country":"US","winery":"Uvaggio","color":"Red","year":2014,"geocode":{"lat":38.2971707,"lng":-122.2864459},"address":"820 Randolph St, Napa, CA 94581, USA"},{"title":"Guastaferro 2008 Primum  (Taurasi)","country":"Italy","winery":"Guastaferro","color":"Red","year":2008,"geocode":{"lat":41.0110232,"lng":14.9604509},"address":"Via Antonio Gramsci, 2, 83030 Taurasi AV, Italy"},{"title":"Testarossa 2013 Sierra Madre Vineyard Pinot Noir (Santa Maria Valley)","country":"US","winery":"Testarossa","color":"Red","year":2013,"geocode":{"lat":37.21347799999999,"lng":-121.981544},"address":"300 College Ave, Los Gatos, CA 95030, USA"},{"title":"Château Cheval Blanc 2013  Saint-Émilion","country":"France","winery":"Château Cheval Blanc","color":"Red","year":2013,"geocode":{"lat":44.9195013,"lng":-0.1896825},"address":"1 Cheval Blanc, 33330 Saint-Émilion, France"},{"title":"Château Haut-Brion 2013  Pessac-Léognan","country":"France","winery":"Château Haut-Brion","color":"Red","year":2013,"geocode":{"lat":44.8166517,"lng":-0.6086119},"address":"135 Av. Jean Jaurès, 33608 Pessac, France"},{"title":"Château Léoville Las Cases 2013  Saint-Julien","country":"France","winery":"Château Léoville Las Cases","color":"Red","year":2013,"geocode":{"lat":45.163798,"lng":-0.7405845},"address":"Rue de l'École, 33250 Saint-Julien-Beychevelle, France"},{"title":"Château Pontet-Canet 2013  Pauillac","country":"France","winery":"Château Pontet-Canet","color":"Red","year":2013,"geocode":{"lat":45.2089273,"lng":-0.7701047999999999},"address":"Château Pontet-Canet, 33250 Pauillac, France"},{"title":"Muhr-Van der Niepoort 2013 Spitzerberg Blaufränkisch (Carnuntum)","country":"Austria","winery":"Muhr-Van der Niepoort","color":"Red","year":2013},{"title":"Sleight of Hand 2013 Psychedelic Stoney Vine Vineyard Syrah (Walla Walla Valley (WA))","country":"US","winery":"Sleight of Hand","color":"Red","year":2013},{"title":"Château Margaux 2013  Margaux","country":"France","winery":"Château Margaux","color":"Red","year":2013,"geocode":{"lat":45.04443,"lng":-0.6687565999999999},"address":"33460 Margaux-Cantenac, France"},{"title":"Château Montrose 2013  Saint-Estèphe","country":"France","winery":"Château Montrose","color":"Red","year":2013,"geocode":{"lat":45.2463525,"lng":-0.7533456},"address":"3 Grand Vignolles, 33180 Saint-Estèphe, France"},{"title":"Candido 1997 Riserva Red (Salice Salentino)","country":"Italy","winery":"Candido","color":"Red","year":1997,"geocode":{"lat":40.44526159999999,"lng":17.9227811},"address":"Via Armando Diaz 46, 72025 San Donaci BR, Italy"},{"title":"Bolla 1999  Valpolicella","country":"Italy","winery":"Bolla","color":"Red","year":1999,"geocode":{"lat":40.6363778,"lng":-74.07561040000002},"address":"231 Bay St, Staten Island, NY 10301, USA"},{"title":"Terrale 1998 Primitivo (Puglia)","country":"Italy","winery":"Terrale","color":"Red","year":1998,"geocode":{"lat":38.71011439999999,"lng":-122.9618221},"address":"7878 Dry Creek Rd, Geyserville, CA 95441, USA"},{"title":"Audubon Cellars 1997 Picnic Hill Vineyard Late Harvest Zinfandel (Amador County)","country":"US","winery":"Audubon Cellars","color":"Red","year":1997,"geocode":{"lat":39.8909466,"lng":-75.0729504},"address":"Audubon, NJ 08106, USA"},{"title":"Remo Farina 1997 Ripasso  (Valpolicella Classico Superiore)","country":"Italy","winery":"Remo Farina","color":"Red","year":1997,"geocode":{"lat":45.5034576,"lng":10.9225032},"address":"Viale Alberto Bolla, 11, 37029 Pedemonte VR, Italy"},{"title":"Acacia 1997 Lee Vyd Pinot Noir (Napa Valley)","country":"US","winery":"Acacia","color":"Red","year":1997,"geocode":{"lat":38.2220829,"lng":-122.2660123},"address":"555 Gateway Dr, Napa, CA 94558, USA"},{"title":"Acacia 1997 St. Clair Vyd Pinot Noir (Napa Valley)","country":"US","winery":"Acacia","color":"Red","year":1997,"geocode":{"lat":38.2220829,"lng":-122.2660123},"address":"555 Gateway Dr, Napa, CA 94558, USA"},{"title":"Robert Mondavi 1998 Reserve Pinot Noir (Napa Valley)","country":"US","winery":"Robert Mondavi","color":"Red","year":1998,"geocode":{"lat":38.4412684,"lng":-122.4098023},"address":"7801 St Helena Hwy, Oakville, CA 94562, USA"},{"title":"Fidelitas 2011 Ciel du Cheval Vineyard Cabernet Franc (Red Mountain)","country":"US","winery":"Fidelitas","color":"Red","year":2011,"geocode":{"lat":47.731911,"lng":-122.1420857},"address":"14467 Woodinville - Redmond Rd NE, Woodinville, WA 98072, USA"},{"title":"Regio Cantina 2010 Donpà  (Aglianico del Vulture)","country":"Italy","winery":"Regio Cantina","color":"Red","year":2010},{"title":"Renegade 2012 Red (Columbia Valley (WA))","country":"US","winery":"Renegade","color":"Red","year":2012,"geocode":{"lat":40.9857817,"lng":-75.1932544},"address":"600 Main St, Stroudsburg, PA 18360, USA"},{"title":"Shiloh Winery 2011 Mosaic Red (Judean Hills)","country":"Israel","winery":"Shiloh Winery","color":"Red","year":2011},{"title":"Tamarack Cellars 2011 Merlot (Columbia Valley (WA))","country":"US","winery":"Tamarack Cellars","color":"Red","year":2011,"geocode":{"lat":46.0913232,"lng":-118.2721807},"address":"700 C St, Walla Walla, WA 99362, USA"},{"title":"Taverna 2010  Aglianico del Vulture","country":"Italy","winery":"Taverna","color":"Red","year":2010,"geocode":{"lat":41.7594983,"lng":-80.95366419999999},"address":"5585 OH-307, Geneva, OH 44041, USA"},{"title":"Terre di Giurfo 2012 Kudyah Nero d'Avola (Sicilia)","country":"Italy","winery":"Terre di Giurfo","color":"Red","year":2012,"geocode":{"lat":37.1112433,"lng":14.6327287},"address":"Contrada Giurfo, s.n, 95040 Licodia Eubea CT, Italy"},{"title":"Tortoise Creek 2011 Le Charmel Syrah-Grenache (Costières de Nîmes)","country":"France","winery":"Tortoise Creek","color":"Red","year":2011},{"title":"Vivera 2010 Martinella  (Etna)","country":"Italy","winery":"Vivera","color":"Red","year":2010},{"title":"Longoria 2012 Pinot Noir (Sta. Rita Hills)","country":"US","winery":"Longoria","color":"Red","year":2012},{"title":"L'Ecole No. 41 2011 Syrah (Columbia Valley (WA))","country":"US","winery":"L'Ecole No. 41","color":"Red","year":2011},{"title":"Louis Latour 2011 Epenots Premier Cru  (Pommard)","country":"France","winery":"Louis Latour","color":"Red","year":2011,"geocode":{"lat":47.0240114,"lng":4.8404783},"address":"18 Rue des Tonneliers, 21200 Beaune, France"},{"title":"Maison Champy 2011 Aux Fourches  (Savigny-lès-Beaune)","country":"France","winery":"Maison Champy","color":"Red","year":2011,"geocode":{"lat":47.024716,"lng":4.84085},"address":"5 Rue du Grenier À Sel, 21200 Beaune, France"},{"title":"Mastroberardino 2012 Aglianico (Campania)","country":"Italy","winery":"Mastroberardino","color":"Red","year":2012,"geocode":{"lat":40.9232653,"lng":14.8318223},"address":"Via Manfredi, 75-81, 83042 Atripalda AV, Italy"},{"title":"Marchesi di Barolo 2014 Rurè  (Barbera d'Alba)","country":"Italy","winery":"Marchesi di Barolo","color":"Red","year":2014,"geocode":{"lat":44.6113528,"lng":7.940430600000001},"address":"Via Roma, 1, 12060 Barolo CN, Italy"},{"title":"Maryhill 2013 Winemaker's Red (Columbia Valley (WA))","country":"US","winery":"Maryhill","color":"Red","year":2013},{"title":"Grand Bourgeau 2012  Blaye Côtes de Bordeaux","country":"France","winery":"Grand Bourgeau","color":"Red","year":2012,"geocode":{"lat":38.9681916,"lng":-92.5334547},"address":"12847 W Hwy Bb, Rocheport, MO 65279, USA"},{"title":"Baigorri 2010 Crianza  (Rioja)","country":"Spain","winery":"Baigorri","color":"Red","year":2010},{"title":"Bocopa 2013 Alcanta Barrique Oak Aged Monastrell (Alicante)","country":"Spain","winery":"Bocopa","color":"Red","year":2013,"geocode":{"lat":38.503774,"lng":-0.7916116000000001},"address":"Carrer Talladors, 03610 Petrer, Alicante, Spain"},{"title":"Boomtown 2013 Merlot (Columbia Valley (WA))","country":"US","winery":"Boomtown","color":"Red","year":2013,"geocode":{"lat":39.5602026,"lng":-120.8287311},"address":"200 Main St # B, Downieville, CA 95936, USA"},{"title":"Brooklyn West 2012 Rockridge Red (Sierra Foothills)","country":"US","winery":"Brooklyn West","color":"Red","year":2012,"geocode":{"lat":37.79396390000001,"lng":-122.2704952},"address":"200 2nd Street @, Jackson St, Oakland, CA 94607, USA"},{"title":"Calcu 2012 Reserva Carmenère (Colchagua Valley)","country":"Chile","winery":"Calcu","color":"Red","year":2012,"geocode":{"lat":-33.4113606,"lng":-70.5799524},"address":"Los Militares 4777, Las Condes, Región Metropolitana, Chile"},{"title":"Capoverso 2011 Cantaleone Sangiovese (Cortona)","country":"Italy","winery":"Capoverso","color":"Red","year":2011},{"title":"Castello di Querceto 2010 La Corte Sangiovese (Colli della Toscana Centrale)","country":"Italy","winery":"Castello di Querceto","color":"Red","year":2010,"geocode":{"lat":43.596631,"lng":11.3774606},"address":"Via Alessandro François, 2, 50022 Greve in Chianti FI, Italy"},{"title":"Château la Nauze 2012 Identité  (Castillon Côtes de Bordeaux)","country":"France","winery":"Château la Nauze","color":"Red","year":2012,"geocode":{"lat":44.9082224,"lng":-0.0303425},"address":"2 La Nauze, 33350 Saint Philippe d'Aiguilhe, France"},{"title":"Santa Ema 2014 Select Terroir Merlot (Cachapoal Valley)","country":"Chile","winery":"Santa Ema","color":"Red","year":2014},{"title":"Massi di Mandorlaia 2008 Colpetroso  (Maremma Toscana)","country":"Italy","winery":"Massi di Mandorlaia","color":"Red","year":2008,"geocode":{"lat":42.684643,"lng":11.274204},"address":"S.P. 9 (Aione) - Km 10, 58054 Scansano GR, Italy"},{"title":"Amador Cellars 2013 Ottimista Vineyard Sangiovese (Amador County)","country":"US","winery":"Amador Cellars","color":"Red","year":2013},