[{"title":"Bodegas Riojanas 2008 Monte Real Gran Reserva  (Rioja)","country":"Spain","winery":"Bodegas Riojanas","color":"Red","year":2008,"geocode":{"lat":42.481075,"lng":-2.6403123},"address":"Av. Don Ricardo Ruiz de Azcárraga, 1, 26350 Cenicero, La Rioja, Spain"},{"title":"Corliss Estates 2012 Red (Columbia Valley (WA))","country":"US","winery":"Corliss Estates","color":"Red","year":2012,"geocode":{"lat":46.0711124,"lng":-118.3438796},"address":"511 N 2nd Ave, Walla Walla, WA 99362, USA"},{"title":"Va Piano 2014 Stoney Vine Vineyard Black Label Syrah (Walla Walla Valley (WA))","country":"US","winery":"Va Piano","color":"Red","year":2014,"geocode":{"lat":46.003999,"lng":-118.371124},"address":"1793 J B George Rd, Walla Walla, WA 99362, USA"},{"title":"Villa Maria 2013 Single Vineyard Braided Gravels Merlot (Hawke's Bay)","country":"New Zealand","winery":"Villa Maria","color":"Red","year":2013,"geocode":{"lat":-36.9794728,"lng":174.7671428},"address":"118 Montgomerie Road, Māngere, Manukau 2022, New Zealand"},{"title":"Wilderotter 2013 Petite Sirah (Shenandoah Valley (CA))","country":"US","winery":"Wilderotter","color":"Red","year":2013,"geocode":{"lat":38.4965383,"lng":-120.8251609},"address":"19890 Shenandoah School Rd, Plymouth, CA 95669, USA"},{"title":"Calera 2008 Reed Vineyard Pinot Noir (Mt. Harlan)","country":"US","winery":"Calera","color":"Red","year":2008,"geocode":{"lat":36.7366002,"lng":-121.3691394},"address":"11300 Cienega Rd, Hollister, CA 95023, USA"},{"title":"Labouré-Roi 2008 La Futaille  (Gevrey-Chambertin)","country":"France","winery":"Labouré-Roi","color":"Red","year":2008,"geocode":{"lat":47.124868,"lng":4.965228},"address":"Rue Lavoisier, 21700 Nuits-Saint-Georges, France"},{"title":"Montes 2007 Alpha M Red (Santa Cruz)","country":"Chile","winery":"Montes","color":"Red","year":2007,"geocode":{"lat":-34.6121305,"lng":-71.27387809999999},"address":"I-350, Millahue, Santa Cruz, O'Higgins, Chile"},{"title":"Pierre André 2007 Santenots  (Volnay)","country":"France","winery":"Pierre André","color":"Red","year":2007,"geocode":{"lat":44.0841837,"lng":4.881279999999999},"address":"30 Fbg Saint-Georges, 84350 Courthézon, France"},{"title":"Storybook Mountain 2008 Mayacamas Range Zinfandel (Napa Valley)","country":"US","winery":"Storybook Mountain","color":"Red","year":2008,"geocode":{"lat":38.6021968,"lng":-122.6388055},"address":"3835 CA-128, Calistoga, CA 94515, USA"},{"title":"Storybook Mountain 2008 Eastern Exposures Zinfandel (Napa Valley)","country":"US","winery":"Storybook Mountain","color":"Red","year":2008,"geocode":{"lat":38.6021968,"lng":-122.6388055},"address":"3835 CA-128, Calistoga, CA 94515, USA"},{"title":"Finca Sophenia 2008 Synthesis The Blend Red (Tupungato)","country":"Argentina","winery":"Finca Sophenia","color":"Red","year":2008,"geocode":{"lat":-33.4627841,"lng":-69.2174976},"address":"Km 12.5, Ruta 89, M5561 Tupungato, Gualtallary, Mendoza, Argentina"},{"title":"Aresti 2007 Family Collection Red (Curicó Valley)","country":"Chile","winery":"Aresti","color":"Red","year":2007,"geocode":{"lat":-35.1506759,"lng":-71.2991851},"address":"Unnamed Road,, Río Claro, Maule, Chile"},{"title":"Bodega Catena Zapata 2008 Adrianna Vineyard Malbec (Mendoza)","country":"Argentina","winery":"Bodega Catena Zapata","color":"Red","year":2008,"geocode":{"lat":-33.167836,"lng":-68.90453169999999},"address":"Cobos S/N, M5509 Luján de Cuyo, Mendoza, Argentina"},{"title":"Bodega Catena Zapata 2008 Argentino Malbec (Mendoza)","country":"Argentina","winery":"Bodega Catena Zapata","color":"Red","year":2008,"geocode":{"lat":-33.167836,"lng":-68.90453169999999},"address":"Cobos S/N, M5509 Luján de Cuyo, Mendoza, Argentina"},{"title":"Highway 12 2006 Reserve Red (Sonoma Valley)","country":"US","winery":"Highway 12","color":"Red","year":2006,"geocode":{"lat":38.29191160000001,"lng":-122.4565893},"address":"27 E Napa St Suite S, Sonoma, CA 95476, USA"},{"title":"Trivento 2009 Reserve Malbec (Mendoza)","country":"Argentina","winery":"Trivento","color":"Red","year":2009,"geocode":{"lat":-33.0203535,"lng":-68.7736875},"address":"RP60 & Jerónimo Ruiz, M5517, Mendoza, Argentina"},{"title":"Costaripa 2008 Castelline  (Garda Classico)","country":"Italy","winery":"Costaripa","color":"Red","year":2008,"geocode":{"lat":45.5304476,"lng":10.5328255},"address":"Via della Costa, 1/a, 25080 Moniga del Garda BS, Italy"},{"title":"Domaines Astruc 2009 Reserve Merlot (Vin de Pays d'Oc)","country":"France","winery":"Domaines Astruc","color":"Red","year":2009,"geocode":{"lat":43.0585414,"lng":2.181945},"address":"Prat Iches, 11300 Malras, France"},{"title":"Fontanabianca 2007 Brunet  (Barbera d'Alba)","country":"Italy","winery":"Fontanabianca","color":"Red","year":2007,"geocode":{"lat":44.7348965,"lng":8.1105479},"address":"via Bordini, 15, 12052 Neive CN, Italy"},{"title":"Hugh Hamilton 2009 The Mongrel Sangiovese Blend Sangiovese (McLaren Vale)","country":"Australia","winery":"Hugh Hamilton","color":"Red","year":2009,"geocode":{"lat":-35.2310009,"lng":138.5614382},"address":"94 McMurtrie Rd, McLaren Vale SA 5171, Australia"},{"title":":Nota Bene 2007 Miscela Red (Columbia Valley (WA))","country":"US","winery":":Nota Bene","color":"Red","year":2007,"geocode":{"lat":47.5194963,"lng":-122.3126279},"address":"9320 15th Ave S unit c, Seattle, WA 98108, USA"},{"title":"Presqu'ile 2009 Rim Rock Vineyard Pinot Noir (San Luis Obispo County)","country":"US","winery":"Presqu'ile","color":"Red","year":2009,"geocode":{"lat":34.8538029,"lng":-120.3710817},"address":"5391 Presquile Dr, Santa Maria, CA 93455, USA"},{"title":"Principiano Ferdinando 2009 Laura  (Barbera d'Alba)","country":"Italy","winery":"Principiano Ferdinando","color":"Red","year":2009,"geocode":{"lat":44.587262,"lng":7.967110299999999},"address":"Via Alba, 47, 12065 Monforte d'Alba CN, Italy"},{"title":"Azienda Agricola Cogno 2009 Vigna del Mandorlo  (Dolcetto d'Alba)","country":"Italy","winery":"Azienda Agricola Cogno","color":"Red","year":2009,"geocode":{"lat":44.594701,"lng":7.9381747},"address":"Località Ravera, 2, 12060 Novello CN, Italy"},{"title":"Bonotto delle Tezze 2007 Barabane Red (Piave)","country":"Italy","winery":"Bonotto delle Tezze","color":"Red","year":2007,"geocode":{"lat":45.8159246,"lng":12.3475118},"address":"Via Duca D'Aosta, 36, 31028 Vazzola TV, Italy"},{"title":"Bossy Boots 2014 Reserva Merlot (Maule Valley)","country":"Chile","winery":"Bossy Boots","color":"Red","year":2014},{"title":"Work 2012 Adrien's Blend Red (Napa Valley)","country":"US","winery":"Work","color":"Red","year":2012,"geocode":{"lat":38.594935,"lng":-122.607895},"address":"3190 CA-128, Calistoga, CA 94515, USA"},{"title":"Cougar 2014 Estate Cask Reserve Sangiovese (Temecula Valley)","country":"US","winery":"Cougar","color":"Red","year":2014,"geocode":{"lat":33.5425377,"lng":-117.0092316},"address":"39870 De Portola Rd, Temecula, CA 92592, USA"},{"title":"Santa Ema 2014 Reserva Merlot (Maipo Valley)","country":"Chile","winery":"Santa Ema","color":"Red","year":2014,"geocode":{"lat":-33.7534257,"lng":-70.9075702},"address":"Izaga 1096, Isla de Maipo, Región Metropolitana, Chile"},{"title":"Finca Patagonia 2015 Expedicion Pinot Noir (Maule Valley)","country":"Chile","winery":"Finca Patagonia","color":"Red","year":2015,"geocode":{"lat":-39.04097,"lng":-67.6017193},"address":"RN22, Río Negro, Argentina"},{"title":"Santa Rita 2015 Secret Reserve Pinot Noir (Central Valley)","country":"Chile","winery":"Santa Rita","color":"Red","year":2015,"geocode":{"lat":34.66595650000001,"lng":-120.1152408},"address":"2923 Grand Ave, Los Olivos, CA 93441, USA"},{"title":"Casas del Toqui 2015 Barrel Series Reserva Pinot Noir (Cachapoal Valley)","country":"Chile","winery":"Casas del Toqui","color":"Red","year":2015,"geocode":{"lat":-34.3364655,"lng":-70.7618511},"address":"Requínoa, Requinoa, O'Higgins, Chile"},{"title":"Loma Larga 2011 Brut Nature Limited Edition Cabernet Franc (Casablanca Valley)","country":"Chile","winery":"Loma Larga","color":"Red","year":2011,"geocode":{"lat":-33.288404,"lng":-71.38548999999999},"address":"Camino Lo Ovalle km. 2.8, Casablanca, Valparaíso, Chile"},{"title":"Quinta do Noval 2001 Nacional Vintage  (Port)","country":"Portugal","winery":"Quinta do Noval","color":"Red","year":2001,"geocode":{"lat":41.2131392,"lng":-7.538020500000001},"address":"N322-3, 5085 Pinhão, Portugal"},{"title":"Alta Vista 2013 Single Vineyard Temis Malbec (Mendoza)","country":"Argentina","winery":"Alta Vista","color":"Red","year":2013,"geocode":{"lat":-33.0026271,"lng":-68.87416499999999},"address":"Alzaga 3972, M5505 Chacras de Coria, Mendoza, Argentina"},{"title":"K Vintners 2012 The Hustler Syrah (Walla Walla Valley (WA))","country":"US","winery":"K Vintners","color":"Red","year":2012,"geocode":{"lat":46.0854763,"lng":-118.2503954},"address":"820 Mill Creek Rd, Walla Walla, WA 99362, USA"},{"title":"Proprietà Sperino 2011  Lessona","country":"Italy","winery":"Proprietà Sperino","color":"Red","year":2011,"geocode":{"lat":45.5593184,"lng":8.217786499999999},"address":"Via Orolungo, 34, 13853 Lessona BI, Italy"},{"title":"Charles Smith 2013 Royal City Northridge Vineyard Syrah (Columbia Valley (WA))","country":"US","winery":"Charles Smith","color":"Red","year":2013,"geocode":{"lat":46.0681349,"lng":-118.3349168},"address":"35 S Spokane St, Walla Walla, WA 99362, USA"},{"title":"Colombera & Garella 2013 Pizzaguerra  (Lessona)","country":"Italy","winery":"Colombera & Garella","color":"Red","year":2013,"geocode":{"lat":46.162612,"lng":8.971822},"address":"Via al Ticino 6, 6592 S. Antonino, Switzerland"},{"title":"Sineann 2015 TFL Pinot Noir (Willamette Valley)","country":"US","winery":"Sineann","color":"Red","year":2015,"geocode":{"lat":45.245624,"lng":-122.888048},"address":"8400 Champoeg Rd NE, St Paul, OR 97137, USA"},{"title":"Gaja 2013  Barbaresco","country":"Italy","winery":"Gaja","color":"Red","year":2013,"geocode":{"lat":44.72599200000001,"lng":8.0807351},"address":"Via Torino, 5, 12050 Barbaresco CN, Italy"},{"title":"Robert Biale 2014 Limerick Lane Vineyard Zinfandel (Russian River Valley)","country":"US","winery":"Robert Biale","color":"Red","year":2014,"geocode":{"lat":38.3491752,"lng":-122.303323},"address":"4038 Big Ranch Rd, Napa, CA 94558, USA"},{"title":"Arpepe 2007 Sassella Vigna Regina Riserva  (Valtellina Superiore)","country":"Italy","winery":"Arpepe","color":"Red","year":2007,"geocode":{"lat":46.1715336,"lng":9.898451000000001},"address":"Via del Buon Consiglio, 4, 23100 Sondrio SO, Italy"},{"title":"Quinta do Noval 2014 Vintage  (Port)","country":"Portugal","winery":"Quinta do Noval","color":"Red","year":2014,"geocode":{"lat":41.2131392,"lng":-7.538020500000001},"address":"N322-3, 5085 Pinhão, Portugal"},{"title":"Pali 2014 Cargasacchi Vineyard Pinot Noir (Sta. Rita Hills)","country":"US","winery":"Pali","color":"Red","year":2014,"geocode":{"lat":32.7267968,"lng":-117.1697587},"address":"2130 India St, San Diego, CA 92101, USA"},{"title":"K Vintners 2013 The Hidden Northridge Vineyard Syrah (Wahluke Slope)","country":"US","winery":"K Vintners","color":"Red","year":2013,"geocode":{"lat":46.0854763,"lng":-118.2503954},"address":"820 Mill Creek Rd, Walla Walla, WA 99362, USA"},{"title":"Paul Durdilly 2011 Nouveau  (Beaujolais)","country":"France","winery":"Paul Durdilly","color":"Red","year":2011,"geocode":{"lat":45.92857619999999,"lng":4.5756994},"address":"980 Chem. de Combefort, 69620 Val d'Oingt, France"},{"title":"Cusumano 2009 Nero d'Avola (Sicilia)","country":"Italy","winery":"Cusumano","color":"Red","year":2009,"geocode":{"lat":38.0610737,"lng":13.1010146},"address":"SS 113, Km 307, Contrada San Carlo Contrada San Carlo, 90047 Partinico PA, Italy"},{"title":"Spy Valley 2008 Satellite Pinot Noir (Marlborough)","country":"New Zealand","winery":"Spy Valley","color":"Red","year":2008,"geocode":{"lat":-41.5279213,"lng":173.7980973},"address":"37 Lake Timara Road West, Marlborough 7276, New Zealand"},{"title":"Basel Cellars 2008 Inspired Red Red (Columbia Valley (WA))","country":"US","winery":"Basel Cellars","color":"Red","year":2008,"geocode":{"lat":46.0176661,"lng":-118.395933},"address":"2901 Old Milton Hwy, Walla Walla, WA 99362, USA"},{"title":"Bodegas Peñafiel 2008 Miros  (Ribera del Duero)","country":"Spain","winery":"Bodegas Peñafiel","color":"Red","year":2008,"geocode":{"lat":41.6084016,"lng":-4.154527},"address":"Av. Valladolid Soria, km 311, 47300 Peñafiel, Valladolid, Spain"},{"title":"Botter 2010 Caleo Nero d'Avola (Sicilia)","country":"Italy","winery":"Botter","color":"Red","year":2010,"geocode":{"lat":45.6413199,"lng":12.5054419},"address":"Via Luigi Cadorna, 17, 30020 Fossalta di Piave VE, Italy"},{"title":"Cantine Barbera 2010 La Bambina Nero d'Avola (Sicilia)","country":"Italy","winery":"Cantine Barbera","color":"Red","year":2010,"geocode":{"lat":37.5901749,"lng":12.9362006},"address":"SP79, 92013 Menfi AG, Italy"},{"title":"Corvo 2009 Terrae Dei Nero d'Avola (Sicilia)","country":"Italy","winery":"Corvo","color":"Red","year":2009,"geocode":{"lat":42.2874084,"lng":-87.8527118},"address":"900 Armour Dr, Lake Bluff, IL 60044, USA"},{"title":"Domaine Chasselay 2010 Les Grands Eparcieux  (Beaujolais)","country":"France","winery":"Domaine Chasselay","color":"Red","year":2010,"geocode":{"lat":45.885375,"lng":4.6320141},"address":"123 Chem. de la Roche, 69380 Chatillon, France"},{"title":"Kingston Family 2010 Alazan Pinot Noir (Casablanca & Leyda Valleys)","country":"Chile","winery":"Kingston Family","color":"Red","year":2010,"geocode":{"lat":-33.317081,"lng":-71.460571},"address":"Hijuela El Maitén S/N, Casablanca, Valparaíso, Chile"},{"title":"Loriñon 2006 Reserva  (Rioja)","country":"Spain","winery":"Loriñon","color":"Red","year":2006,"geocode":{"lat":26.1347981,"lng":-80.1415073},"address":"839 NE 3rd Ave, Fort Lauderdale, FL 33304, USA"},{"title":"MandraRossa 2010 Nero d'Avola (Sicilia)","country":"Italy","winery":"MandraRossa","color":"Red","year":2010,"geocode":{"lat":37.5955557,"lng":12.9565244},"address":"92013 Menfi, AG, Italy"},{"title":"Masseria del Feudo Grottarossa 2010 Il Giglio Nero d'Avola (Sicilia)","country":"Italy","winery":"Masseria del Feudo Grottarossa","color":"Red","year":2010,"geocode":{"lat":37.4070073,"lng":13.9018891},"address":"Contrada Grottarossa, snc, 93100 Caltanissetta CL, Italy"},{"title":"MICA Cellars 2010 Smith Road Vineyards, Rows 2–5 Pinot Noir (Santa Cruz Mountains)","country":"US","winery":"MICA Cellars","color":"Red","year":2010,"geocode":{"lat":38.738079,"lng":-120.704412},"address":"3405 Carson Ct, Placerville, CA 95667, USA"},{"title":"Mineo Family Vineyards 2008 Damis Red (Sicilia)","country":"Italy","winery":"Mineo Family Vineyards","color":"Red","year":2008,"geocode":{"lat":33.063725,"lng":-116.934368},"address":"17870 Oak Grove Rd, Ramona, CA 92065, USA"},{"title":"Nicosia 2010 Fondo Filara Nero d'Avola (Sicilia)","country":"Italy","winery":"Nicosia","color":"Red","year":2010,"geocode":{"lat":37.6228394,"lng":15.0751659},"address":"Via Luigi Capuana, 65, 95039 Trecastagni CT, Italy"},{"title":"Feudi di San Gregorio 2013 Rubrato Aglianico (Irpinia)","country":"Italy","winery":"Feudi di San Gregorio","color":"Red","year":2013,"geocode":{"lat":40.9111904,"lng":14.8675003},"address":"Località Cerza Grossa, 83050 Sorbo Serpico AV, Italy"},{"title":"Galardi 2013 Terra di Lavoro Red (Campania)","country":"Italy","winery":"Galardi","color":"Red","year":2013,"geocode":{"lat":41.317004,"lng":13.9236626},"address":"SP Sessa Mignano Km 8.9, 81037 Sessa Aurunca CE, Italy"},{"title":"Wild Hogge 2009 Tree Frog Cabernet Sauvignon-Syrah (Paso Robles)","country":"US","winery":"Wild Hogge","color":"Red","year":2009,"geocode":{"lat":38.5695855,"lng":-123.2366439},"address":"30904 Bohan Dillon Rd, Cazadero, CA 95421, USA"},{"title":"Morgante 2013 Nero d'Avola (Sicilia)","country":"Italy","winery":"Morgante","color":"Red","year":2013,"geocode":{"lat":37.390294,"lng":13.682377},"address":"Contrada Racalmare, 92020 Grotte AG, Italy"},{"title":"Noviello 2013 Brava Red (Red Mountain)","country":"US","winery":"Noviello","color":"Red","year":2013},{"title":"Soos Creek 2012 Champoux Vineyard Red (Horse Heaven Hills)","country":"US","winery":"Soos Creek","color":"Red","year":2012,"geocode":{"lat":47.3865,"lng":-122.1110879},"address":"24012 172nd Ave SE, Kent, WA 98042, USA"},{"title":"Stonecroft 2014 Crofters Gimblett Gravels Syrah (Hawke's Bay)","country":"New Zealand","winery":"Stonecroft","color":"Red","year":2014,"geocode":{"lat":-39.5969384,"lng":176.745802},"address":"121 Mere Road, Fernhill 4175, New Zealand"},{"title":"Ballentine 2013 Estate Grown Merlot (St. Helena)","country":"US","winery":"Ballentine","color":"Red","year":2013,"geocode":{"lat":38.5199367,"lng":-122.4901544},"address":"2820 St Helena Hwy, St Helena, CA 94574, USA"},{"title":"Château Bernadotte 2013  Haut-Médoc","country":"France","winery":"Château Bernadotte","color":"Red","year":2013,"geocode":{"lat":45.1935344,"lng":-0.8009221999999999},"address":"2 Rte de Fournas, 33250 Saint-Sauveur, France"},{"title":"Château Cambon la Pelousse 2013  Haut-Médoc","country":"France","winery":"Château Cambon la Pelousse","color":"Red","year":2013,"geocode":{"lat":45.000643,"lng":-0.6289319999999999},"address":"5 Chem. de Canteloup, 33460 Macau, Margaux, France"},{"title":"Château Devise d'Ardilley 2013  Haut-Médoc","country":"France","winery":"Château Devise d'Ardilley","color":"Red","year":2013,"geocode":{"lat":45.157448,"lng":-0.823221},"address":"5 lieu-dit Pateau, 33112 Saint-Laurent-Médoc, France"},{"title":"Château Grand-Puy Ducasse 2013  Pauillac","country":"France","winery":"Château Grand-Puy Ducasse","color":"Red","year":2013,"geocode":{"lat":45.2000799,"lng":-0.7463278999999999},"address":"4 Quai Antoine Ferchaud, 33250 Pauillac, France"},{"title":"Château la Croix Romane 2012  Lalande de Pomerol","country":"France","winery":"Château la Croix Romane","color":"Red","year":2012,"geocode":{"lat":44.9554616,"lng":-0.207758},"address":"1 bis Rue des Ecoles, 33500 Lalande-de-Pomerol, France"},{"title":"Château Les Carmes Haut-Brion 2013  Pessac-Léognan","country":"France","winery":"Château Les Carmes Haut-Brion","color":"Red","year":2013,"geocode":{"lat":44.822374,"lng":-0.6100194999999999},"address":"20 Rue des Carmes, 33000 Bordeaux, France"},{"title":"Château Maurac 2013  Haut-Médoc","country":"France","winery":"Château Maurac","color":"Red","year":2013,"geocode":{"lat":45.2817671,"lng":-0.8085103},"address":"33180 Saint-Seurin-de-Cadourne, France"},{"title":"Château Nardou 2012  Francs Côtes de Bordeaux","country":"France","winery":"Château Nardou","color":"Red","year":2012,"geocode":{"lat":44.953604,"lng":-0.024697},"address":"Château Nardou, Nardou, 33570 Tayac, France"},{"title":"Château Rousset-Caillau 2010 Cuvée Jean  (Bordeaux Supérieur)","country":"France","winery":"Château Rousset-Caillau","color":"Red","year":2010,"geocode":{"lat":44.6694571,"lng":-0.1302693},"address":"Rousset, 33540 Saint-Sulpice-de-Pommiers, France"},{"title":"Colosi 2014 Nero d'Avola (Terre Siciliane)","country":"Italy","winery":"Colosi","color":"Red","year":2014,"geocode":{"lat":38.2070039,"lng":15.3065271},"address":"Diramazione Viaria C, Giammoro, 98042 Pace del Mela ME, Italy"},{"title":"Columbia Crest 2013 Reserve Grenache (Horse Heaven Hills)","country":"US","winery":"Columbia Crest","color":"Red","year":2013,"geocode":{"lat":45.9570837,"lng":-119.6095194},"address":"178810 WA-221, Paterson, WA 99345, USA"},{"title":"Alessandro di Camporeale 2011 Kaid Vendemmia Tardiva Syrah (Sicilia)","country":"Italy","winery":"Alessandro di Camporeale","color":"Red","year":2011,"geocode":{"lat":37.8941226,"lng":13.1138329},"address":"Contrada Mandranova, 90043 Camporeale PA, Italy"},{"title":"Cambridge & Sunset 2013 California Series Zinfandel (California)","country":"US","winery":"Cambridge & Sunset","color":"Red","year":2013,"geocode":{"lat":52.2042666,"lng":0.1149085},"address":"The Old Schools, Trinity Ln, Cambridge CB2 1TN, UK"},{"title":"Mastroberardino 2014 Lacrimarosa Aglianico (Irpinia)","country":"Italy","winery":"Mastroberardino","color":"Red","year":2014,"geocode":{"lat":40.9232653,"lng":14.8318223},"address":"Via Manfredi, 75-81, 83042 Atripalda AV, Italy"},{"title":"Nine Hats 2013 Red (Columbia Valley (WA))","country":"US","winery":"Nine Hats","color":"Red","year":2013,"geocode":{"lat":47.5679318,"lng":-122.3352999},"address":"3861 1st Ave S, Seattle, WA 98134, USA"},{"title":"Michele Chiarlo 2012 Cannubi  (Barolo)","country":"Italy","winery":"Michele Chiarlo","color":"Red","year":2012,"geocode":{"lat":44.7313458,"lng":8.3213819},"address":"Strada Nizza-Canelli, 99, 14042 Calamandrana AT, Italy"},{"title":"Nervi 2009 Valferana  (Gattinara)","country":"Italy","winery":"Nervi","color":"Red","year":2009,"geocode":{"lat":45.61077299999999,"lng":8.372138},"address":"Corso Vercelli, 117, 13045 Gattinara VC, Italy"},{"title":"Podere ai Valloni 2009 Vigna Cristiana  (Boca)","country":"Italy","winery":"Podere ai Valloni","color":"Red","year":2009,"geocode":{"lat":45.6875004,"lng":8.38125},"address":"Str. della Traversagna, 1, 28010 Boca NO, Italy"},{"title":"Sangenís I Vaqué 2001 Coranya Red (Priorat)","country":"Spain","winery":"Sangenís I Vaqué","color":"Red","year":2001,"geocode":{"lat":41.187652,"lng":0.8566499999999999},"address":"Plaça de Catalunya, 3, 43739 Porrera, Tarragona, Spain"},{"title":"K Vintners 2014 The Beautiful Syrah (Walla Walla Valley (WA))","country":"US","winery":"K Vintners","color":"Red","year":2014,"geocode":{"lat":46.0854763,"lng":-118.2503954},"address":"820 Mill Creek Rd, Walla Walla, WA 99362, USA"},{"title":"Langmeil 2014 The Freedom 1843 Shiraz (Barossa)","country":"Australia","winery":"Langmeil","color":"Red","year":2014,"geocode":{"lat":-34.5082542,"lng":138.9632366},"address":"Corner Langmeil and, Para Rd, Tanunda SA 5232, Australia"},{"title":"Poeira 2013 39 Barricas Red (Douro)","country":"Portugal","winery":"Poeira","color":"Red","year":2013,"geocode":{"lat":41.2275332,"lng":-7.5530375},"address":"Quinta do Poeira, 5060-283, Portugal"},{"title":"Produttori del Barbaresco 2011 Pajè Riserva  (Barbaresco)","country":"Italy","winery":"Produttori del Barbaresco","color":"Red","year":2011,"geocode":{"lat":44.727405,"lng":8.0807749},"address":"Via Torino, 54, 12050 Barbaresco CN, Italy"},{"title":"Château Beychevelle 2014  Saint-Julien","country":"France","winery":"Château Beychevelle","color":"Red","year":2014,"geocode":{"lat":45.1442106,"lng":-0.7342561},"address":"Château Beychevelle, 33250 Saint-Julien-Beychevelle, France"},{"title":"Château Fonbadet 2014  Pauillac","country":"France","winery":"Château Fonbadet","color":"Red","year":2014,"geocode":{"lat":45.18106,"lng":-0.7525522},"address":"47 Rte des Châteaux, 33250 Pauillac, France"},{"title":"Domaine Serene 2012 Monogram Pinot Noir (Willamette Valley)","country":"US","winery":"Domaine Serene","color":"Red","year":2012,"geocode":{"lat":45.2704073,"lng":-123.0685637},"address":"6555 NE Hilltop Ln, Dayton, OR 97114, USA"},{"title":"Domaine Serene 2013 Gold Eagle Vineyard Pinot Noir (Dundee Hills)","country":"US","winery":"Domaine Serene","color":"Red","year":2013,"geocode":{"lat":45.2704073,"lng":-123.0685637},"address":"6555 NE Hilltop Ln, Dayton, OR 97114, USA"},{"title":"Salentein 2014 Numina Spirit Vineyard Gran Corte Red (Valle de Uco)","country":"Argentina","winery":"Salentein","color":"Red","year":2014,"geocode":{"lat":-33.4940872,"lng":-69.2428813},"address":"Ruta 89 s/n, M5563 Los Arboles de Villegas, Mendoza, Argentina"},{"title":"Siduri 2014 Keefer Ranch Vineyard Pinot Noir (Russian River Valley)","country":"US","winery":"Siduri","color":"Red","year":2014,"geocode":{"lat":38.6098486,"lng":-122.8706366},"address":"235 Healdsburg Ave, Healdsburg, CA 95448, USA"},{"title":"Sineann 2015 Zenith Vineyard Pinot Noir (Eola-Amity Hills)","country":"US","winery":"Sineann","color":"Red","year":2015,"geocode":{"lat":45.245624,"lng":-122.888048},"address":"8400 Champoeg Rd NE, St Paul, OR 97137, USA"},{"title":"The Eyrie Vineyards 2014 Pinot Noir (Willamette Valley)","country":"US","winery":"The Eyrie Vineyards","color":"Red","year":2014,"geocode":{"lat":45.214049,"lng":-123.1878305},"address":"935 NE 10th Ave, McMinnville, OR 97128, USA"},{"title":"Arrocal 2010 Máximo  (Ribera del Duero)","country":"Spain","winery":"Arrocal","color":"Red","year":2010,"geocode":{"lat":41.752261,"lng":-3.8037988},"address":"Calle Eras de, Plaza Sta. María, S/N, 09443 Gumiel del Mercado, Burgos, Spain"},{"title":"Bonterra 2012 The McNab Red (Mendocino County)","country":"US","winery":"Bonterra","color":"Red","year":2012,"geocode":{"lat":39.040203,"lng":-123.1852984},"address":"2350 McNab Ranch Rd, Ukiah, CA 95482, USA"},{"title":"Carlisle 2013 Petite Sirah (Sonoma County)","country":"US","winery":"Carlisle","color":"Red","year":2013,"geocode":{"lat":38.5202897,"lng":-122.8421499},"address":"6301 Starr Rd, Windsor, CA 95492, USA"},{"title":"Château d'Ollières 2012 Haut de l'Hermitage Red (Coteaux Varois)","country":"France","winery":"Château d'Ollières","color":"Red","year":2012,"geocode":{"lat":43.4837609,"lng":5.8302326},"address":"Le, Rue du Château, 83470 Ollières, France"},{"title":"Hearst Ranch 2013 Carpoforo Zinfandel (Paso Robles)","country":"US","winery":"Hearst Ranch","color":"Red","year":2013,"geocode":{"lat":35.643626,"lng":-121.1917064},"address":"442 Slo San Simeon Rd, San Simeon, CA 93452, USA"},{"title":"Iron Horse 2013 Estate Pinot Noir (Green Valley)","country":"US","winery":"Iron Horse","color":"Red","year":2013,"geocode":{"lat":38.4561169,"lng":-122.8988332},"address":"9786 Ross Station Rd, Sebastopol, CA 95472, USA"},{"title":"Les Vignobles Gueissard 2013 Cuvée Cros du Loup Red (Bandol)","country":"France","winery":"Les Vignobles Gueissard","color":"Red","year":2013,"geocode":{"lat":43.1835067,"lng":5.820316099999999},"address":"405 Trav. des Grenadières, 83330 Le Beausset, France"},{"title":"Loring Wine Company 2014 Pinot Noir (Russian River Valley)","country":"US","winery":"Loring Wine Company","color":"Red","year":2014,"geocode":{"lat":34.6629294,"lng":-120.4703648},"address":"1034 Aviation Dr, Lompoc, CA 93436, USA"},{"title":"Eight Bells 2013 8 Clones Red Willow Vineyard Syrah (Yakima Valley)","country":"US","winery":"Eight Bells","color":"Red","year":2013,"geocode":{"lat":47.67369799999999,"lng":-122.3176775},"address":"6213 Roosevelt Way NE ste b, Seattle, WA 98115, USA"},{"title":"Flechas de los Andes 2011 Gran Corte Red (Mendoza)","country":"Argentina","winery":"Flechas de los Andes","color":"Red","year":2011,"geocode":{"lat":-33.6645562,"lng":-69.2451675},"address":"Tunuyán, Mendoza Province, Argentina"},{"title":"Twomey 2012 Merlot (Napa Valley)","country":"US","winery":"Twomey","color":"Red","year":2012,"geocode":{"lat":38.5657972,"lng":-122.5566333},"address":"1183 Dunaweal Ln, Calistoga, CA 94515, USA"},{"title":"Raphael 2013 Reserve Petit Verdot (North Fork of Long Island)","country":"US","winery":"Raphael","color":"Red","year":2013,"geocode":{"lat":41.03473,"lng":-72.46062599999999},"address":"39390 NY-25, Peconic, NY 11958, USA"},{"title":"Rizzi 2013 Nebbiolo (Langhe)","country":"Italy","winery":"Rizzi","color":"Red","year":2013,"geocode":{"lat":41.0935052,"lng":-81.619006},"address":"2809 Copley Rd, Copley, OH 44321, USA"},{"title":"Convento de Las Claras 2012 Heritage  (Ribera del Duero)","country":"Spain","winery":"Convento de Las Claras","color":"Red","year":2012,"geocode":{"lat":41.6159623,"lng":-4.1180598},"address":"Carretera Pesquera, Km 1,5, 47300 Peñafiel, Valladolid, Spain"},{"title":"Domaine Marie Berenice 2013 Mourvèdre (Bandol)","country":"France","winery":"Domaine Marie Berenice","color":"Red","year":2013,"geocode":{"lat":43.2002995,"lng":5.7669175},"address":"1826 Rte du Grand Vallat, 83330 Le Castellet, France"},{"title":"Elephant Hill 2014 Syrah (Hawke's Bay)","country":"New Zealand","winery":"Elephant Hill","color":"Red","year":2014,"geocode":{"lat":-39.6231029,"lng":176.9616174},"address":"86 Clifton Road, Te Awanga, Haumoana 4172, New Zealand"},{"title":"Swiftwater Cellars 2014 Cabernet Franc (Columbia Valley (WA))","country":"US","winery":"Swiftwater Cellars","color":"Red","year":2014,"geocode":{"lat":47.20824,"lng":-120.996962},"address":"301 Rope Rider Dr, Cle Elum, WA 98922, USA"},{"title":"Swiftwater Cellars 2014 Malbec (Columbia Valley (WA))","country":"US","winery":"Swiftwater Cellars","color":"Red","year":2014,"geocode":{"lat":47.20824,"lng":-120.996962},"address":"301 Rope Rider Dr, Cle Elum, WA 98922, USA"},{"title":"Adega Cachín 2015 Peza do Rei Mencía (Ribeira Sacra)","country":"Spain","winery":"Adega Cachín","color":"Red","year":2015,"geocode":{"lat":42.39425990000001,"lng":-7.443771700000001},"address":"ABELEDA, S/N, 32764 A Teixeira, Ourense, Spain"},{"title":"Chateau Ste. Michelle 2014 Canoe Ridge Estate Merlot (Horse Heaven Hills)","country":"US","winery":"Chateau Ste. Michelle","color":"Red","year":2014,"geocode":{"lat":47.7299119,"lng":-122.1508226},"address":"14111 NE 145th St, Woodinville, WA 98072, USA"},{"title":"Chehalem 2015 Three Vineyard Pinot Noir (Willamette Valley)","country":"US","winery":"Chehalem","color":"Red","year":2015,"geocode":{"lat":45.299895,"lng":-122.969343},"address":"106 S Center St, Newberg, OR 97132, USA"},{"title":"Domaine Charles Frey 2016 Harmonie Pinot Noir (Alsace)","country":"France","winery":"Domaine Charles Frey","color":"Red","year":2016,"geocode":{"lat":48.3220173,"lng":7.447061499999999},"address":"1 Rue du Pinot Blanc, 67650 Dambach-la-ville, France"},{"title":"Heartland 2014 Spice Trader Shiraz-Cabernet Sauvignon (Langhorne Creek)","country":"Australia","winery":"Heartland","color":"Red","year":2014,"geocode":{"lat":-34.920888,"lng":138.629514},"address":"2 / 65A The Parade (access from, Woods St, Norwood SA 5067, Australia"}]