[{"title":"Château d'Alix 2016  Pessac-Léognan","country":"France","winery":"Château d'Alix","color":"White","year":2016},{"title":"Domaine Pichot 2015 Coteau de la Biche Sec  (Vouvray)","country":"France","winery":"Domaine Pichot","color":"White","year":2015,"geocode":{"lat":47.4217543,"lng":0.8098},"address":"70 Rue de la Vall. de Nouy, 37210 Vouvray, France"},{"title":"Foley 2014 T Anchor Ranch Chardonnay (Sta. Rita Hills)","country":"US","winery":"Foley","color":"White","year":2014,"geocode":{"lat":34.6505835,"lng":-120.3022173},"address":"6121 East, CA-246, Lompoc, CA 93436, USA"},{"title":"Goodfellow 2014 Richard's Cuvée Whistling Ridge Vineyard Chardonnay (Ribbon Ridge)","country":"US","winery":"Goodfellow","color":"White","year":2014,"geocode":{"lat":45.2126487,"lng":-123.190487},"address":"888 NE 8th St, McMinnville, OR 97128, USA"},{"title":"Henri Bourgeois 2014 La Demoiselle des Bourgeois  (Pouilly-Fumé)","country":"France","winery":"Henri Bourgeois","color":"White","year":2014,"geocode":{"lat":38.4527464,"lng":-122.8064455},"address":"3535 Guerneville Rd, Santa Rosa, CA 95401, USA"},{"title":"Testarossa 2014 Diana's Chardonnay (California)","country":"US","winery":"Testarossa","color":"White","year":2014,"geocode":{"lat":37.21347799999999,"lng":-121.981544},"address":"300 College Ave, Los Gatos, CA 95030, USA"},{"title":"Galerie 2013 Pleinair Cabernet Sauvignon (Napa Valley)","country":"US","winery":"Galerie","color":"White","year":2013,"geocode":{"lat":38.5397855,"lng":-120.7892463},"address":"12557 Steiner Rd, Plymouth, CA 95669, USA"},{"title":"Josmeyer 2014 Le Dragon Riesling (Alsace)","country":"France","winery":"Josmeyer","color":"White","year":2014,"geocode":{"lat":48.0740772,"lng":7.2855265},"address":"Dégustation uniquement sur RDV, 76 Rue Clemenceau, 68920 Wintzenheim, France"},{"title":"Myka 2013 Côtes du Cruz Red (Santa Cruz Mountains)","country":"US","winery":"Myka","color":"White","year":2013,"geocode":{"lat":38.738079,"lng":-120.704412},"address":"3405 Carson Ct, Placerville, CA 95667, USA"},{"title":"B Cellars 2013 Blend 23 White (Napa Valley)","country":"US","winery":"B Cellars","color":"White","year":2013,"geocode":{"lat":38.4493283,"lng":-122.3735433},"address":"703 Oakville Cross Rd, Napa, CA 94558, USA"},{"title":"Boekenoogen 2013 Bell Ranch Vineyard Cabernet Sauvignon (Monterey)","country":"US","winery":"Boekenoogen","color":"White","year":2013,"geocode":{"lat":36.4794409,"lng":-121.7322583},"address":"24 W Carmel Valley Rd, Carmel Valley, CA 93924, USA"},{"title":"Chappellet 2013 Signature Cabernet Sauvignon (Napa Valley)","country":"US","winery":"Chappellet","color":"White","year":2013,"geocode":{"lat":38.48198989999999,"lng":-122.3354352},"address":"1581 Sage Canyon Rd, St Helena, CA 94574, USA"},{"title":"Domaine Zind-Humbrecht 2014 Roche Calcaire Gewurztraminer (Alsace)","country":"France","winery":"Domaine Zind-Humbrecht","color":"White","year":2014,"geocode":{"lat":48.0838286,"lng":7.295687},"address":"2 Rte de Colmar, 68230 Turckheim, France"},{"title":"Walt 2014 La Brisa Chardonnay (Russian River Valley)","country":"US","winery":"Walt","color":"White","year":2014,"geocode":{"lat":38.2943679,"lng":-122.4583141},"address":"380 1st St W, Sonoma, CA 95476, USA"},{"title":"Testarossa 2014 Lone Oak Vineyard Chardonnay (Santa Lucia Highlands)","country":"US","winery":"Testarossa","color":"White","year":2014,"geocode":{"lat":37.21347799999999,"lng":-121.981544},"address":"300 College Ave, Los Gatos, CA 95030, USA"},{"title":"Château Jolys 2013 Cuvée Jean  (Jurançon)","country":"France","winery":"Château Jolys","color":"White","year":2013,"geocode":{"lat":43.2495397,"lng":-0.4091346},"address":"330 Rte de la Chapelle de Rousse, 64290 Gan, France"},{"title":"Dachshund 2013 Cabernet Sauvignon (California)","country":"US","winery":"Dachshund","color":"White","year":2013,"geocode":{"lat":40.2317402,"lng":-74.538907},"address":"610 Perrineville Rd, Hightstown, NJ 08520, USA"},{"title":"Maximin Grünhäuser 2014 Trocken Riesling (Mosel)","country":"Germany","winery":"Maximin Grünhäuser","color":"White","year":2014,"geocode":{"lat":49.7696378,"lng":6.716905},"address":"Maximin Grünhaus 1, 54318 Mertesdorf, Germany"},{"title":"Quinta da Lagoalva de Cima 2015 Lagoalva Rosé (Tejo)","country":"Portugal","winery":"Quinta da Lagoalva de Cima","color":"White","year":2015,"geocode":{"lat":39.2959453,"lng":-8.5629376},"address":"Quinta Lagoalva De Cima, 2090-222 Alpiarça, Portugal"},{"title":"Quintas de Melgaço 2015 QM Lagar Alvarinho (Vinho Verde)","country":"Portugal","winery":"Quintas de Melgaço","color":"White","year":2015,"geocode":{"lat":42.092949,"lng":-8.298418},"address":"Ferreiros de Cima, 4960-010, Portugal"},{"title":"Reaper 2014 Chardonnay (Russian River Valley)","country":"US","winery":"Reaper","color":"White","year":2014,"geocode":{"lat":39.467354,"lng":-77.548407},"address":"8546 Pete Wiles Rd, Middletown, MD 21769, USA"},{"title":"Rodney Strong 2014 Chardonnay (Sonoma County)","country":"US","winery":"Rodney Strong","color":"White","year":2014,"geocode":{"lat":38.5732861,"lng":-122.8439611},"address":"11455 Old Redwood Hwy, Healdsburg, CA 95448, USA"},{"title":"Rutherford Hill 2013 Limited Release Chardonnay (Carneros-Napa Valley)","country":"US","winery":"Rutherford Hill","color":"White","year":2013,"geocode":{"lat":38.493681,"lng":-122.403795},"address":"200 Rutherford Hill Rd, Rutherford, CA 94573, USA"},{"title":"San Simeon 2014 Estate Reserve Viognier (Paso Robles)","country":"US","winery":"San Simeon","color":"White","year":2014,"geocode":{"lat":35.643626,"lng":-121.1917064},"address":"442 Slo San Simeon Rd, San Simeon, CA 93452, USA"},{"title":"La Follette 2013 Sangiacomo Vineyard Chardonnay (Sonoma Coast)","country":"US","winery":"La Follette","color":"White","year":2013,"geocode":{"lat":38.6124276,"lng":-122.8713245},"address":"409A Healdsburg Ave, Healdsburg, CA 95448, USA"},{"title":"Clinton 2013 Victory White Seyval Blanc (Hudson River Region)","country":"US","winery":"Clinton","color":"White","year":2013,"geocode":{"lat":41.3015401,"lng":-72.5452536},"address":"115 Cow Hill Rd, Clinton, CT 06413, USA"},{"title":"Domaine Rieflé-Landmann 2012 Rieflé Bihl Riesling (Alsace)","country":"France","winery":"Domaine Rieflé-Landmann","color":"White","year":2012,"geocode":{"lat":47.9781717,"lng":7.2931287},"address":"7 Rue du Drotfeld, 68250 Pfaffenheim, France"},{"title":"La Merika 2013 Pinot Grigio (Monterey)","country":"US","winery":"La Merika","color":"White","year":2013,"geocode":{"lat":38.4282591,"lng":-122.5548637},"address":"233 Adobe Canyon Rd, Kenwood, CA 95452, USA"},{"title":"Robert Klingenfus 2013 Orfèvre en Arôme Signature Pinot Blanc (Alsace)","country":"France","winery":"Robert Klingenfus","color":"White","year":2013,"geocode":{"lat":48.548709,"lng":7.492589000000001},"address":"60 Rue de Saverne, 67120 Molsheim, France"},{"title":"Santa Alicia 2013 Reserva Espiritu de Los Andes Estate Bottled Cabernet Sauvignon (Maipo Valley)","country":"Chile","winery":"Santa Alicia","color":"White","year":2013,"geocode":{"lat":-33.6721392,"lng":-70.5404435},"address":"Circunvalación Máximo Valdés 4135, Pirque, Región Metropolitana, Chile"},{"title":"Veo 2013 Grande Cabernet Sauvignon (Colchagua Valley)","country":"Chile","winery":"Veo","color":"White","year":2013,"geocode":{"lat":32.8677753,"lng":-96.7663819},"address":"6770 Greenville Ave, Dallas, TX 75231, USA"},{"title":"Veramonte 2014 Sauvignon Blanc (Casablanca Valley)","country":"Chile","winery":"Veramonte","color":"White","year":2014,"geocode":{"lat":-33.3703426,"lng":-71.2947593},"address":"Casablanca, Valparaíso, Chile"},{"title":"Vieil Armand 2013 Tradition Riesling (Alsace)","country":"France","winery":"Vieil Armand","color":"White","year":2013,"geocode":{"lat":47.874649,"lng":7.216389499999999},"address":"WUENHEIM FR, 1 Rte de Cernay, 68360 Soultz-Haut-Rhin, France"},{"title":"Viña San Vicente 2013 Geiser Tatio Reserve Sauvignon Blanc (Maule Valley)","country":"Chile","winery":"Viña San Vicente","color":"White","year":2013,"geocode":{"lat":-34.4546704,"lng":-70.9874742},"address":"Ruta 66 91, San Vicente de Taguatagua, San Vicente, O'Higgins, Chile"},{"title":"Helfrich 2013 Gewurztraminer (Alsace)","country":"France","winery":"Helfrich","color":"White","year":2013,"geocode":{"lat":48.6221769,"lng":7.4839214},"address":"102 Rue du Général de Gaulle, 67520 Marlenheim, France"},{"title":"Santa Rita 2013 Reserva Sauvignon Blanc (Casablanca Valley)","country":"Chile","winery":"Santa Rita","color":"White","year":2013,"geocode":{"lat":34.66595650000001,"lng":-120.1152408},"address":"2923 Grand Ave, Los Olivos, CA 93441, USA"},{"title":"Decoy 2012 Cabernet Sauvignon (Sonoma County)","country":"US","winery":"Decoy","color":"White","year":2012,"geocode":{"lat":38.5294533,"lng":-122.4908152},"address":"1000 Lodi Ln, St Helena, CA 94574, USA"},{"title":"Château Larroque 2013  Bordeaux Blanc","country":"France","winery":"Château Larroque","color":"White","year":2013,"geocode":{"lat":43.7614639,"lng":0.643984},"address":"A Larroque, 32390 Sainte-Christie, France"},{"title":"Santa Alicia 2014 Reserva Espiritu de Los Andes Estate Bottled Chardonnay (Maipo Valley)","country":"Chile","winery":"Santa Alicia","color":"White","year":2014,"geocode":{"lat":-33.6721392,"lng":-70.5404435},"address":"Circunvalación Máximo Valdés 4135, Pirque, Región Metropolitana, Chile"},{"title":"Chimney Rock 2006 Cabernet Sauvignon (Stags Leap District)","country":"US","winery":"Chimney Rock","color":"White","year":2006,"geocode":{"lat":38.3905194,"lng":-122.3136306},"address":"5350 Silverado Trail, Napa, CA 94558, USA"},{"title":"Tiefenbrunner 2010 Kirchleiten Sauvignon (Alto Adige)","country":"Italy","winery":"Tiefenbrunner","color":"White","year":2010,"geocode":{"lat":46.300749,"lng":11.2125674},"address":"Schloßweg, 4, 39040 Entiklar, Autonome Provinz Bozen - Südtirol, Italy"},{"title":"Château Jolys 2009 Cuvée Pauline  (Jurançon Sec)","country":"France","winery":"Château Jolys","color":"White","year":2009,"geocode":{"lat":43.2495397,"lng":-0.4091346},"address":"330 Rte de la Chapelle de Rousse, 64290 Gan, France"},{"title":"Masciarelli 2007 Marina Cvetic'  (Trebbiano d'Abruzzo)","country":"Italy","winery":"Masciarelli","color":"White","year":2007,"geocode":{"lat":42.1929839,"lng":-70.9258258},"address":"144 Moore Rd, Weymouth, MA 02189, USA"},{"title":"Attems 2008 Cicinis White (Collio)","country":"Italy","winery":"Attems","color":"White","year":2008,"geocode":{"lat":41.8923631,"lng":-87.6263498},"address":"43 E Ohio St, Chicago, IL 60611, USA"},{"title":"Colterenzio 2009 Lafòa Sauvignon (Alto Adige)","country":"Italy","winery":"Colterenzio","color":"White","year":2009,"geocode":{"lat":46.4639118,"lng":11.2883434},"address":"Weinstraße, 8, 39057 Girlan, Autonome Provinz Bozen - Südtirol, Italy"},{"title":"Honig 2008 Cabernet Sauvignon (Napa Valley)","country":"US","winery":"Honig","color":"White","year":2008,"geocode":{"lat":38.4681475,"lng":-122.4040528},"address":"850 Rutherford Rd, Rutherford, CA 94573, USA"},{"title":"Turnbull 2009 Estate Grown Cabernet Sauvignon (Napa Valley)","country":"US","winery":"Turnbull","color":"White","year":2009,"geocode":{"lat":38.4445482,"lng":-122.4083986},"address":"8210 St Helena Hwy, Oakville, CA 94562, USA"},{"title":"Vie di Romans 2009 Ciampagnis Vieris Chardonnay (Friuli Isonzo)","country":"Italy","winery":"Vie di Romans","color":"White","year":2009,"geocode":{"lat":45.906569,"lng":13.4523297},"address":"Loc. Vie di Romans, 1, 34070 Mariano del Friuli GO, Italy"},{"title":"Lis Neris 2007 Lis White (Venezia Giulia)","country":"Italy","winery":"Lis Neris","color":"White","year":2007,"geocode":{"lat":45.9293858,"lng":13.5271326},"address":"Via Gavinana, 5, 34070 San Lorenzo Isontino GO, Italy"},{"title":"Joh. Jos. Prüm 2009 Graacher Himmelreich Auslese Riesling (Mosel)","country":"Germany","winery":"Joh. Jos. Prüm","color":"White","year":2009,"geocode":{"lat":49.9414919,"lng":7.0459806},"address":"Uferallee 19, 54470 Bernkastel-Kues, Germany"},{"title":"Monteverro 2008 Chardonnay (Toscana)","country":"Italy","winery":"Monteverro","color":"White","year":2008,"geocode":{"lat":42.429221,"lng":11.418378},"address":"Strada Aurelia capalbio, 11, 58011 Capalbio GR, Italy"},{"title":"Tulip Winery 2012 Just Cabernet Sauvignon (Galilee)","country":"Israel","winery":"Tulip Winery","color":"White","year":2012,"geocode":{"lat":32.7017686,"lng":35.1168432},"address":"כפר תקווה, Israel"},{"title":"Kumeu River 2011 Coddington Chardonnay (Kumeu)","country":"New Zealand","winery":"Kumeu River","color":"White","year":2011,"geocode":{"lat":-36.7779616,"lng":174.5640967},"address":"550 State Highway 16, Auckland 0892, New Zealand"},{"title":"Lusco 2013 Albariño (Rías Baixas)","country":"Spain","winery":"Lusco","color":"White","year":2013,"geocode":{"lat":42.09743599999999,"lng":-8.524129},"address":"Lugar Grixo-Alxen, s/n, 36458 Salvaterra de Miño, Pontevedra, Spain"},{"title":"Prinz Salm 2013 Felseneck Wallhausen Trocken GG Erste Lage Riesling (Nahe)","country":"Germany","winery":"Prinz Salm","color":"White","year":2013,"geocode":{"lat":49.8890922,"lng":7.763653499999999},"address":"Schlossstraße 3, 55595 Wallhausen, Germany"},{"title":"J. Davies 2011 Cabernet Sauvignon (Diamond Mountain District)","country":"US","winery":"J. Davies","color":"White","year":2011,"geocode":{"lat":38.4983541,"lng":-122.4622424},"address":"1210 Grayson Ave, St Helena, CA 94574, USA"},{"title":"Jack Creek 2013 Kruse Vineyard Chardonnay (Central Coast)","country":"US","winery":"Jack Creek","color":"White","year":2013,"geocode":{"lat":35.5536403,"lng":-120.7920567},"address":"5265 Jack Creek Rd, Templeton, CA 93465, USA"},{"title":"Joseph Cattin 2012 Hatschbourg Grand Cru Gewurztraminer (Alsace)","country":"France","winery":"Joseph Cattin","color":"White","year":2012,"geocode":{"lat":48.0225036,"lng":7.2843987},"address":"35 Rue Roger Frémeaux, 68420 Vœgtlinshoffen, France"},{"title":"Keller Estate 2012 La Cruz Vineyard Pinot Gris (Sonoma Coast)","country":"US","winery":"Keller Estate","color":"White","year":2012,"geocode":{"lat":38.1947681,"lng":-122.5442309},"address":"5875 Lakeville Hwy, Petaluma, CA 94954, USA"},{"title":"Kriselle 2013 Sauvignon Blanc (Rogue Valley)","country":"US","winery":"Kriselle","color":"White","year":2013,"geocode":{"lat":42.4964057,"lng":-122.8628295},"address":"12956 Modoc Rd, White City, OR 97503, USA"},{"title":"Granbazán 2013 Etiqueta Verde Albariño (Rías Baixas)","country":"Spain","winery":"Granbazán","color":"White","year":2013,"geocode":{"lat":42.5397386,"lng":-8.786617399999999},"address":"Lugar de Tremoedo, 46, 36628, Pontevedra, Spain"},{"title":"Donelan 2013 Venus Roussanne-Viognier (Sonoma County)","country":"US","winery":"Donelan","color":"White","year":2013,"geocode":{"lat":38.4718027,"lng":-122.7435125},"address":"3352 Coffey Ln STE D, Santa Rosa, CA 95403, USA"},{"title":"La Grille 2013  Rosé d'Anjou","country":"France","winery":"La Grille","color":"White","year":2013,"geocode":{"lat":47.1893674,"lng":0.2521504},"address":"Rte de Huismes, 37500 Chinon, France"},{"title":"Adega Cooperativa Ponte de Barca 2013 Las Lilas White (Vinho Verde)","country":"Portugal","winery":"Adega Cooperativa Ponte de Barca","color":"White","year":2013,"geocode":{"lat":41.8009017,"lng":-8.414888},"address":"Av. Fernão Magalhães, Lugar de Agrelos, 4980-601 Pte. da Barca, Portugal"},{"title":"Bougrier 2013 Château du Jaunay Sur Lie  (Muscadet Sèvre et Maine)","country":"France","winery":"Bougrier","color":"White","year":2013,"geocode":{"lat":47.31980979999999,"lng":1.3975039},"address":"9 Rte des Moulins, 41140 Saint-Romain-sur-Cher, France"},{"title":"Caves du Val de France 2013 Jovly Sauvignon Blanc (Touraine)","country":"France","winery":"Caves du Val de France","color":"White","year":2013,"geocode":{"lat":47.4113965,"lng":0.78362},"address":"73 Rue du Petit Coteau, 37210 Vouvray, France"},{"title":"Chai de Bordes 2013  Bordeaux Blanc","country":"France","winery":"Chai de Bordes","color":"White","year":2013,"geocode":{"lat":44.8803799,"lng":-0.5483718},"address":"31 bis Rue Barillet Deschamps, 33300 Bordeaux, France"},{"title":"Château Borie de Noaillan 2013  Bordeaux Blanc","country":"France","winery":"Château Borie de Noaillan","color":"White","year":2013,"geocode":{"lat":44.7188132,"lng":0.4124534},"address":"Château La Forêt, 24500 Saint-Julien-Innocence-Eulalie, France"},{"title":"Trivento 2013 Amado Sur Chardonnay-Pinot Grigio-Viognier White (Mendoza)","country":"Argentina","winery":"Trivento","color":"White","year":2013,"geocode":{"lat":-33.0203535,"lng":-68.7736875},"address":"RP60 & Jerónimo Ruiz, M5517, Mendoza, Argentina"},{"title":"Valentin Bianchi 2013 Elsa Bianchi Cabernet Sauvignon (Mendoza)","country":"Argentina","winery":"Valentin Bianchi","color":"White","year":2013,"geocode":{"lat":-34.5828004,"lng":-68.42337859999999},"address":"Ruta 143 y calle Valentín San Rafael Mendoza AR, Bianchi, M5600 BCJ, Mendoza, Argentina"},{"title":"DFJ Vinhos 2013 Storks Landing Rosé (Lisboa)","country":"Portugal","winery":"DFJ Vinhos","color":"White","year":2013,"geocode":{"lat":39.1531575,"lng":-8.733550000000001},"address":"2070-681 Vila Chã de Ourique, Portugal"},{"title":"Garfield Estates 2012 V° Viognier (Grand Valley)","country":"US","winery":"Garfield Estates","color":"White","year":2012,"geocode":{"lat":39.106899,"lng":-108.3900847},"address":"3572 G Rd, Palisade, CO 81526, USA"},{"title":"Musset-Roullier 2013 L'Esquisse  (Cabernet d'Anjou)","country":"France","winery":"Musset-Roullier","color":"White","year":2013,"geocode":{"lat":47.37193629999999,"lng":-0.8581907},"address":"Le Pélican, 49620 Mauges-sur-Loire, France"},{"title":"Rutherford Ranch 2013 Sauvignon Blanc (Napa Valley)","country":"US","winery":"Rutherford Ranch","color":"White","year":2013,"geocode":{"lat":38.4886045,"lng":-122.4071719},"address":"1680 Silverado Trail S, St Helena, CA 94574, USA"},{"title":"Santa Julia 2013 Made with Organic Grapes Chardonnay (Mendoza)","country":"Argentina","winery":"Santa Julia","color":"White","year":2013,"geocode":{"lat":-32.9697749,"lng":-68.56671469999999},"address":"km 7,5, RP33, M5531 Maipú, Mendoza, Argentina"},{"title":"Terras de Alter 2013 Fado Rosé (Alentejano)","country":"Portugal","winery":"Terras de Alter","color":"White","year":2013,"geocode":{"lat":39.0501455,"lng":-7.638524299999998},"address":"Zona Industrial Da Lt. 22/28, 263, 7460 Fronteira, Portugal"},{"title":"The Williamsburg Winery 2012 A Midsummer Night's White (Virginia)","country":"US","winery":"The Williamsburg Winery","color":"White","year":2012,"geocode":{"lat":37.23206,"lng":-76.71843},"address":"5800 Wessex Hundred, Williamsburg, VA 23185, USA"},{"title":"Pillsbury 2011 Chardonnay (Cochise County)","country":"US","winery":"Pillsbury","color":"White","year":2011,"geocode":{"lat":32.12831,"lng":-109.709514},"address":"6450 S Bennett Pl, Willcox, AZ 85643, USA"},{"title":"Isabelle et Pierre Clément 2012 Châtenay  (Menetou-Salon)","country":"France","winery":"Isabelle et Pierre Clément","color":"White","year":2012,"geocode":{"lat":47.236073,"lng":2.5031628},"address":"1 Domaine de Châtenoy, 18510 Menetou-Salon, France"},{"title":"Jean Maréchal 2013 Le Roi des Pierres  (Sancerre)","country":"France","winery":"Jean Maréchal","color":"White","year":2013,"geocode":{"lat":46.8299978,"lng":4.7289749},"address":"20 Grande Rue, 71640 Mercurey, France"},{"title":"Michel Torino 2013 Coleccion Cabernet Sauvignon (Calchaquí Valley)","country":"Argentina","winery":"Michel Torino","color":"White","year":2013,"geocode":{"lat":-26.0618893,"lng":-65.9706001},"address":"RN40 km 4343, A4427 Cafayate, Salta, Argentina"},{"title":"Carlson Creek 2010 Chardonnay (Arizona)","country":"US","winery":"Carlson Creek","color":"White","year":2010,"geocode":{"lat":33.4956085,"lng":-111.9292911},"address":"4142 N Marshall Way, Scottsdale, AZ 85251, USA"},{"title":"Cave des Producteurs de Vouvray 2012 Les Lys  (Vouvray)","country":"France","winery":"Cave des Producteurs de Vouvray","color":"White","year":2012,"geocode":{"lat":47.4166843,"lng":0.7807713},"address":"38 Rue de la Vall. Coquette, 37210 Vouvray, France"},{"title":"Ventosa 2011 Pinot Gris (Finger Lakes)","country":"US","winery":"Ventosa","color":"White","year":2011,"geocode":{"lat":42.857164,"lng":-76.936131},"address":"3440 NY-96A, Geneva, NY 14456, USA"},{"title":"William Cole 2013 Albamar Sauvignon Blanc (Casablanca Valley)","country":"Chile","winery":"William Cole","color":"White","year":2013,"geocode":{"lat":-33.3168079,"lng":-71.3489086},"address":"Casablanca, Valparaíso, Chile"},{"title":"Willm 2012 Cuvée Famille Willm Gewurztraminer (Alsace)","country":"France","winery":"Willm","color":"White","year":2012,"geocode":{"lat":47.4501554,"lng":-122.4968768},"address":"12526 SW Bank Rd, Vashon, WA 98070, USA"},{"title":"Accadia 2012 Conscio  (Verdicchio dei Castelli di Jesi Classico Superiore)","country":"Italy","winery":"Accadia","color":"White","year":2012,"geocode":{"lat":43.435143,"lng":13.0672449},"address":"Contrada Ammorto, 19, Località Castellaro, 60048 Serra San Quirico AN, Italy"},{"title":"Cantina Ma.Ri.Ca. 2012 Tregaso  (Verdicchio dei Castelli di Jesi Classico)","country":"Italy","winery":"Cantina Ma.Ri.Ca.","color":"White","year":2012,"geocode":{"lat":43.54651,"lng":13.16426},"address":"Via Acquasanta, 7, 60030 Belvedere Ostrense AN, Italy"},{"title":"Cave de Kientzheim-Kaysersberg 2011 Anne de K Pinot Gris (Alsace)","country":"France","winery":"Cave de Kientzheim-Kaysersberg","color":"White","year":2011,"geocode":{"lat":48.136072,"lng":7.285234},"address":"29 Grand-Rue, 68240 Kaysersberg, France"},{"title":"Centanni Giacomo 2012  Offida Pecorino","country":"Italy","winery":"Centanni Giacomo","color":"White","year":2012,"geocode":{"lat":38.208473,"lng":-122.451803},"address":"25200 Arnold Dr, Sonoma, CA 95476, USA"},{"title":"un4seen 2012 Moscato (Clarksburg)","country":"US","winery":"un4seen","color":"White","year":2012},{"title":"Lawer 2012 Lawer Family Betsy's Vineyard Viognier (Knights Valley)","country":"US","winery":"Lawer","color":"White","year":2012,"geocode":{"lat":38.5771417,"lng":-122.5798625},"address":"1255 Lincoln Ave, Calistoga, CA 94515, USA"},{"title":"Le Caniette 2012 Lucrezia Passerina (Marche)","country":"Italy","winery":"Le Caniette","color":"White","year":2012,"geocode":{"lat":43.0073394,"lng":13.7695368},"address":"Contrada Canali, 23, 63038 Ripatransone AP, Italy"},{"title":"Marchetti 2012  Verdicchio dei Castelli di Jesi Classico","country":"Italy","winery":"Marchetti","color":"White","year":2012,"geocode":{"lat":41.51625689999999,"lng":-81.5689826},"address":"3091 Mayfield Rd # 310, Cleveland, OH 44118, USA"},{"title":"Mas de la Dame 2012 La Stèle White (Les Baux de Provence)","country":"France","winery":"Mas de la Dame","color":"White","year":2012,"geocode":{"lat":43.7396694,"lng":4.8232143},"address":"Route départementale 5, 13520 Les Baux-de-Provence, France"},{"title":"Rodney Strong 2015 Estate Vineyards Charlotte's Home Sauvignon Blanc (Northern Sonoma)","country":"US","winery":"Rodney Strong","color":"White","year":2015,"geocode":{"lat":38.5732861,"lng":-122.8439611},"address":"11455 Old Redwood Hwy, Healdsburg, CA 95448, USA"},{"title":"Sparkman 2015 Birdie Riesling (Columbia Valley (WA))","country":"US","winery":"Sparkman","color":"White","year":2015,"geocode":{"lat":47.7345797,"lng":-122.1481035},"address":"14300 NE 145th St #102, Woodinville, WA 98072, USA"},{"title":"Andrew Januik 2013 Lady Hawk Cabernet Sauvignon (Horse Heaven Hills)","country":"US","winery":"Andrew Januik","color":"White","year":2013},{"title":"As Laxas 2015 Albariño (Rías Baixas)","country":"Spain","winery":"As Laxas","color":"White","year":2015,"geocode":{"lat":42.115769,"lng":-8.310995799999999},"address":"As Laxas 16 Arbo, 36430 Arbo, Pontevedra, Spain"},{"title":"Cadaretta 2012 Cabernet Sauvignon (Columbia Valley (WA))","country":"US","winery":"Cadaretta","color":"White","year":2012,"geocode":{"lat":46.070189,"lng":-118.33531},"address":"315 E Main St, Walla Walla, WA 99362, USA"},{"title":"Domaine Charles Frey 2013 Quintessence Pinot Gris (Alsace)","country":"France","winery":"Domaine Charles Frey","color":"White","year":2013},{"title":"McIntyre Vineyards 2014 Chardonnay (Santa Lucia Highlands)","country":"US","winery":"McIntyre Vineyards","color":"White","year":2014,"geocode":{"lat":36.4654158,"lng":-121.4649316},"address":"31901 Sanchez Rd, Soledad, CA 93960, USA"},{"title":"Paul Blanck 2013 Patergarten Pinot Gris (Alsace)","country":"France","winery":"Paul Blanck","color":"White","year":2013,"geocode":{"lat":48.136072,"lng":7.285234},"address":"29 Grand-Rue, 68240 Kaysersberg, France"},{"title":"Priest Ranch 2014 Estate Grown Sauvignon Blanc (Napa Valley)","country":"US","winery":"Priest Ranch","color":"White","year":2014},{"title":"Sixto 2013 Roza Hills Chardonnay (Washington)","country":"US","winery":"Sixto","color":"White","year":2013,"geocode":{"lat":47.5463895,"lng":-122.3171106},"address":"1136 S Albro Pl, Seattle, WA 98108, USA"},{"title":"Josmeyer 2014 Les Pierrets Riesling (Alsace)","country":"France","winery":"Josmeyer","color":"White","year":2014,"geocode":{"lat":48.0740772,"lng":7.2855265},"address":"Dégustation uniquement sur RDV, 76 Rue Clemenceau, 68920 Wintzenheim, France"},{"title":"Kingston Family 2015 Cariblanco Sauvignon Blanc (Casablanca Valley)","country":"Chile","winery":"Kingston Family","color":"White","year":2015,"geocode":{"lat":-33.317081,"lng":-71.460571},"address":"Hijuela El Maitén S/N, Casablanca, Valparaíso, Chile"},{"title":"Nuiton-Beaunoy 2010  Hautes Cotes de Beaune","country":"France","winery":"Nuiton-Beaunoy","color":"White","year":2010,"geocode":{"lat":47.0135262,"lng":4.815958699999999},"address":"97 Rte de Pommard, 21200 Beaune, France"},{"title":"Debonné 2009 Reserve Lot 907 Riesling (Grand River Valley)","country":"US","winery":"Debonné","color":"White","year":2009},{"title":"Rose 'N' Blum 2011 Pink Moscato (California)","country":"US","winery":"Rose 'N' Blum","color":"White","year":2011,"geocode":{"lat":37.79534719999999,"lng":-122.2793556},"address":"10 Clay St, Oakland, CA 94607, USA"},{"title":"Standing Stone 2008 Cabernet Sauvignon (Finger Lakes)","country":"US","winery":"Standing Stone","color":"White","year":2008,"geocode":{"lat":42.5434461,"lng":-76.8747894},"address":"9934 NY-414, Hector, NY 14841, USA"},{"title":"Volteo 2011 Verdejo-Sauvignon Blanc (Vino de la Tierra de Castilla y León)","country":"Spain","winery":"Volteo","color":"White","year":2011},{"title":"Ackerman 2007 Cabernet Sauvignon (Napa Valley)","country":"US","winery":"Ackerman","color":"White","year":2007},{"title":"Veramar 2010 Viognier (Virginia)","country":"US","winery":"Veramar","color":"White","year":2010},{"title":"Bouchard Père & Fils 2010 La Vignée  (Bourgogne)","country":"France","winery":"Bouchard Père & Fils","color":"White","year":2010,"geocode":{"lat":48.4291271,"lng":-71.0406674},"address":"892 Bd du Saguenay E, Chicoutimi, QC G7H 1L4, Canada"},{"title":"Château de Maligny 2010  Chablis","country":"France","winery":"Château de Maligny","color":"White","year":2010,"geocode":{"lat":47.8668486,"lng":3.7649632},"address":"2 Grande Rue Maligny, 89800 Chablis, France"},{"title":"Domaine Jean Monnier et Fils 2010 Clos du Cromin  (Meursault)","country":"France","winery":"Domaine Jean Monnier et Fils","color":"White","year":2010,"geocode":{"lat":46.9819307,"lng":4.768092500000001},"address":"20 Rue du 11 Novembre, 21190 Meursault, France"},{"title":"Groth 2010 Chardonnay (Napa Valley)","country":"US","winery":"Groth","color":"White","year":2010},{"title":"Hogue 2009 Reserve Chardonnay (Yakima Valley)","country":"US","winery":"Hogue","color":"White","year":2009},{"title":"16X20 2009 Cabernet Sauvignon (Napa Valley)","country":"US","winery":"16X20","color":"White","year":2009,"geocode":{"lat":38.3482,"lng":-122.358906},"address":"4155 Dry Creek Rd, Napa, CA 94558, USA"},{"title":"Adelaida 2010 The Glenrose Vineyard Viognier (Paso Robles)","country":"US","winery":"Adelaida","color":"White","year":2010,"geocode":{"lat":35.64969680000001,"lng":-120.7974514},"address":"5805 Adelaida Rd, Paso Robles, CA 93446, USA"},{"title":"Johanneshof Reinisch 2011 Auslese Rotgipfler (Thermenregion)","country":"Austria","winery":"Johanneshof Reinisch","color":"White","year":2011},{"title":"Kuleto Estate 2008 Estate Cabernet Sauvignon (Napa Valley)","country":"US","winery":"Kuleto Estate","color":"White","year":2008},{"title":"Les Maîtres Vignerons de Saint-Louis 2011 Estandon Rosé (Côtes de Provence)","country":"France","winery":"Les Maîtres Vignerons de Saint-Louis","color":"White","year":2011},{"title":"Pitars 2011 Braida Santa Cecilia Pinot Grigio (Friuli Grave)","country":"Italy","winery":"Pitars","color":"White","year":2011},{"title":"Dürnberg 2011 Blanc de Noir Select Rosé (Niederösterreich)","country":"Austria","winery":"Dürnberg","color":"White","year":2011,"geocode":{"lat":48.7242788,"lng":16.5920912},"address":"Neuer W. 284, 2162 Falkenstein bei Poysdorf, Austria"},{"title":"Dürnberg 2011 L & T Grüner Veltliner (Niederösterreich)","country":"Austria","winery":"Dürnberg","color":"White","year":2011,"geocode":{"lat":48.7242788,"lng":16.5920912},"address":"Neuer W. 284, 2162 Falkenstein bei Poysdorf, Austria"},{"title":"Höpler 2011 Grüner Veltliner (Burgenland)","country":"Austria","winery":"Höpler","color":"White","year":2011,"geocode":{"lat":47.9409393,"lng":16.7249959},"address":"Heideweg 1, 7091 Breitenbrunn, Austria"},{"title":"Argiolas 2011 Costamolino  (Vermentino di Sardegna)","country":"Italy","winery":"Argiolas","color":"White","year":2011,"geocode":{"lat":39.3718369,"lng":9.156750299999999},"address":"Via Roma, 28/30, 09040 Serdiana CA, Italy"},{"title":"Biltmore Estate 2010 Reserve Chardonnay (North Carolina)","country":"US","winery":"Biltmore Estate","color":"White","year":2010},{"title":"Spier 2011 Chenin Blanc (Stellenbosch)","country":"South Africa","winery":"Spier","color":"White","year":2011,"geocode":{"lat":-33.9735508,"lng":18.7821798},"address":"R310 Baden Powell Dr, Stellenbosch, 7603, South Africa"},{"title":"Van Loveren 2011 Chenin No. 5 Chenin Blanc (Robertson)","country":"South Africa","winery":"Van Loveren","color":"White","year":2011},{"title":"D'Arenberg 2008 The Coppermine Road Cabernet Sauvignon (McLaren Vale)","country":"Australia","winery":"D'Arenberg","color":"White","year":2008},{"title":"Domaine Courtois 2010 La Source Red (Côtes du Rhône)","country":"France","winery":"Domaine Courtois","color":"White","year":2010},{"title":"Barrel Oak 2009 Reserve Chardonnay (Virginia)","country":"US","winery":"Barrel Oak","color":"White","year":2009,"geocode":{"lat":38.88293,"lng":-77.90384499999999},"address":"3623 Grove Ln, Delaplane, VA 20144, USA"},{"title":"Oraison 2009 Red (Côtes du Rhône)","country":"France","winery":"Oraison","color":"White","year":2009},{"title":"Pardas 2010 Rupestris White (Penedès)","country":"Spain","winery":"Pardas","color":"White","year":2010},{"title":"Thierry-Weber 2011 Grüner Veltliner (Niederösterreich)","country":"Austria","winery":"Thierry-Weber","color":"White","year":2011},{"title":"Paladin 2011 Pralis White (Delle Venezie)","country":"Italy","winery":"Paladin","color":"White","year":2011,"geocode":{"lat":45.7899024,"lng":12.6642952},"address":"Via Postumia, 12, 30020 Annone Veneto VE, Italy"},{"title":"Truro 2009 Unoaked Chardonnay (Southeastern New England)","country":"US","winery":"Truro","color":"White","year":2009},{"title":"Domaine de la Sauveuse 2011 Cuvée Carolle Rosé (Côtes de Provence)","country":"France","winery":"Domaine de la Sauveuse","color":"White","year":2011,"geocode":{"lat":45.732605,"lng":-121.30566},"address":"170 Lyle Snowden Rd, Lyle, WA 98635, USA"},{"title":"B Vintners 2015 Fire Heath Chardonnay (Walker Bay)","country":"South Africa","winery":"B Vintners","color":"White","year":2015},{"title":"HandCraft 2014 Artisan Collection Cabernet Sauvignon (California)","country":"US","winery":"HandCraft","color":"White","year":2014,"geocode":{"lat":41.1176039,"lng":-104.8450515},"address":"309 N American Rd unit 11&12, Cheyenne, WY 82007, USA"},{"title":"Ironstone 2013 Reserve Kramer Ranch Cabernet Sauvignon (Sierra Foothills)","country":"US","winery":"Ironstone","color":"White","year":2013},{"title":"J Vineyards & Winery 2015 Chardonnay (Russian River Valley)","country":"US","winery":"J Vineyards & Winery","color":"White","year":2015,"geocode":{"lat":38.5729081,"lng":-122.8423709},"address":"11447 Old Redwood Hwy, Healdsburg, CA 95448, USA"},{"title":"Cantina Produttori San Michele Appiano 2015 Chardonnay (Alto Adige)","country":"Italy","winery":"Cantina Produttori San Michele Appiano","color":"White","year":2015,"geocode":{"lat":46.452386,"lng":11.2682121},"address":"Via Circonvallazione, 17-19, 39057 Appiano sulla strada del vino BZ, Italy"},{"title":"Collis 2015 Scaligeri Decanto  (Soave)","country":"Italy","winery":"Collis","color":"White","year":2015,"geocode":{"lat":45.28061,"lng":9.53427},"address":"Cascina Sesto Pergola, San Martino In Strada, Lo 26817, 26817 San Martino in strada LO, Italy"},{"title":"Corte Moschina 2015 Evaos  (Soave)","country":"Italy","winery":"Corte Moschina","color":"White","year":2015,"geocode":{"lat":45.4731598,"lng":11.3072291},"address":"Via Moschina, 1, 37030 Roncà VR, Italy"},{"title":"DeMorgenzon 2015 DMZ Sauvignon Blanc (Western Cape)","country":"South Africa","winery":"DeMorgenzon","color":"White","year":2015},{"title":"Dona Maria-Júlio Bastos 2015 Viognier (Alentejano)","country":"Portugal","winery":"Dona Maria-Júlio Bastos","color":"White","year":2015},{"title":"Edna Valley Vineyard 2015 Chardonnay (Central Coast)","country":"US","winery":"Edna Valley Vineyard","color":"White","year":2015,"geocode":{"lat":35.2170004,"lng":-120.6075179},"address":"2585 Biddle Ranch Rd, San Luis Obispo, CA 93401, USA"},{"title":"Falchini 2015 Vigna a Solatio  (Vernaccia di San Gimignano)","country":"Italy","winery":"Falchini","color":"White","year":2015},{"title":"Franchetto 2015 La Capelina  (Soave)","country":"Italy","winery":"Franchetto","color":"White","year":2015},{"title":"Clos Pegase 2013 Estate Bottled Cabernet Sauvignon (Napa Valley)","country":"US","winery":"Clos Pegase","color":"White","year":2013,"geocode":{"lat":38.572341,"lng":-122.555126},"address":"1060 Dunaweal Ln, Calistoga, CA 94515, USA"},{"title":"Von Schleinitz 2015 KonSECCO Riesling Sparkling (Mosel)","country":"Germany","winery":"Von Schleinitz","color":"White","year":2015},{"title":"Pontin del Roza 2000 Chenin Blanc (Yakima Valley)","country":"US","winery":"Pontin del Roza","color":"White","year":2000,"geocode":{"lat":46.2669442,"lng":-119.7687764},"address":"35502 N Hinzerling Rd, Prosser, WA 99350, USA"},{"title":"Rutherford Hill 2000 26th Anniversary Chardonnay (Napa Valley)","country":"US","winery":"Rutherford Hill","color":"White","year":2000,"geocode":{"lat":38.493681,"lng":-122.403795},"address":"200 Rutherford Hill Rd, Rutherford, CA 94573, USA"},{"title":"Thunder Mountain 1999 Ciardella Vineyard Chardonnay (Santa Cruz Mountains)","country":"US","winery":"Thunder Mountain","color":"White","year":1999,"geocode":{"lat":39.8413052,"lng":-76.90220359999999},"address":"932 Hilltop Dr, Spring Grove, PA 17362, USA"},{"title":"Hyatt 2000 Reserve Chardonnay (Yakima Valley)","country":"US","winery":"Hyatt","color":"White","year":2000},{"title":"Joseph Phelps 2000 Chardonnay (Carneros)","country":"US","winery":"Joseph Phelps","color":"White","year":2000},{"title":"Kunde 2000 Chardonnay (Sonoma Valley)","country":"US","winery":"Kunde","color":"White","year":2000},{"title":"Andretti 2000 Sauvignon Blanc (Napa Valley)","country":"US","winery":"Andretti","color":"White","year":2000},{"title":"Arunda 2000 Chardonnay (South Eastern Australia)","country":"Australia","winery":"Arunda","color":"White","year":2000},{"title":"Raymond 2000 Reserve Chardonnay (Napa Valley)","country":"US","winery":"Raymond","color":"White","year":2000},{"title":"Ventana 1999 Reserve Chardonnay (Arroyo Seco)","country":"US","winery":"Ventana","color":"White","year":1999,"geocode":{"lat":36.360799,"lng":-121.307074},"address":"38740 Los Coches Rd, Soledad, CA 93960, USA"},{"title":"Peirano 1999 Cabernet Sauvignon (Lodi)","country":"US","winery":"Peirano","color":"White","year":1999},{"title":"Peirano 1999 Sauvignon Blanc (Lodi)","country":"US","winery":"Peirano","color":"White","year":1999},{"title":"Kiona 2000 Dry White Riesling (Columbia Valley (WA))","country":"US","winery":"Kiona","color":"White","year":2000,"geocode":{"lat":46.2768423,"lng":-119.4528634},"address":"44612 N Sunset Rd, Benton City, WA 99320, USA"},{"title":"Gallo of Sonoma 1999 Laguna Vineyard Chardonnay (Russian River Valley)","country":"US","winery":"Gallo of Sonoma","color":"White","year":1999},{"title":"Gordon Brothers 2000 Chardonnay (Columbia Valley (WA))","country":"US","winery":"Gordon Brothers","color":"White","year":2000},{"title":"Xavier Monnot 2006 Les Folatières Premier Cru  (Puligny-Montrachet)","country":"France","winery":"Xavier Monnot","color":"White","year":2006},{"title":"Chanson Père et Fils 2005 Clos Saint-Jean Premier Cru  (Chassagne-Montrachet)","country":"France","winery":"Chanson Père et Fils","color":"White","year":2005},{"title":"La Chablisienne 2006 Vaulorent Premier Cru  (Chablis)","country":"France","winery":"La Chablisienne","color":"White","year":2006,"geocode":{"lat":47.8120481,"lng":3.7946743},"address":"8 Bd Pasteur, 89800 Chablis, France"},{"title":"Lionheart 2007 Saralee's Vineyard The Angel's Share Marsanne-Roussanne White (Russian River Valley)","country":"US","winery":"Lionheart","color":"White","year":2007,"geocode":{"lat":38.7124186,"lng":-122.9735381},"address":"8500 Dry Creek Rd, Geyserville, CA 95441, USA"},{"title":"Sheridan Vineyard 2004 Reserve Cabernet Sauvignon (Yakima Valley)","country":"US","winery":"Sheridan Vineyard","color":"White","year":2004},{"title":"Silverado 2005 SOLO Cabernet Sauvignon (Stags Leap District)","country":"US","winery":"Silverado","color":"White","year":2005},{"title":"Simonnet-Febvre 2006 Montée de Tonnerre Premier Cru  (Chablis)","country":"France","winery":"Simonnet-Febvre","color":"White","year":2006},{"title":"Stuhlmuller Vineyards 2007 Estate Chardonnay (Alexander Valley)","country":"US","winery":"Stuhlmuller Vineyards","color":"White","year":2007},{"title":"JR Wine 2005 Cabernet Sauvignon (Rutherford)","country":"US","winery":"JR Wine","color":"White","year":2005},{"title":"Domaine Christian Moreau Père et Fils 2006 Cuvée Guy Moreau Vaillon Premier Cru  (Chablis)","country":"France","winery":"Domaine Christian Moreau Père et Fils","color":"White","year":2006},{"title":"Gainey 2007 Chardonnay (Sta. Rita Hills)","country":"US","winery":"Gainey","color":"White","year":2007},{"title":"Buena Vista 2006 Ramal Vineyard Chardonnay (Carneros)","country":"US","winery":"Buena Vista","color":"White","year":2006},{"title":"Byron 2006 Nielson Vineyard Chardonnay (Santa Maria Valley)","country":"US","winery":"Byron","color":"White","year":2006},{"title":"Valchiarò 2006 Picolit (Colli Orientali del Friuli)","country":"Italy","winery":"Valchiarò","color":"White","year":2006,"geocode":{"lat":46.1192232,"lng":13.3911381},"address":"Via dei Laghi, 4, 33040 Togliano UD, Italy"},{"title":"Olivier Leflaive 2006 Vaudésir Grand Cru  (Chablis)","country":"France","winery":"Olivier Leflaive","color":"White","year":2006,"geocode":{"lat":46.9464172,"lng":4.7538573},"address":"10 Pl. du Monument, 21190 Puligny-Montrachet, France"},{"title":"Indomita 2009 Zardoz Cabernet Sauvignon (Maipo Valley)","country":"Chile","winery":"Indomita","color":"White","year":2009,"geocode":{"lat":-33.359703,"lng":-71.343857},"address":"Ruta 68, Casablanca, Valparaíso, Chile"},{"title":"Alexandria Nicole 2009 Alderdale Destiny Ridge Vineyards Estate Grown Cabernet Sauvignon (Horse Heaven Hills)","country":"US","winery":"Alexandria Nicole","color":"White","year":2009,"geocode":{"lat":45.88111139999999,"lng":-119.827577},"address":"158422 W, Sonova Rd, Prosser, WA 99350, USA"},{"title":"Dowsett Family 2011 Celilo Vineyard Gewürztraminer (Columbia Gorge (WA))","country":"US","winery":"Dowsett Family","color":"White","year":2011,"geocode":{"lat":46.08899539999999,"lng":-118.2746958},"address":"315 E Cessna Ave, Walla Walla, WA 99362, USA"},{"title":"Firestone 2010 Riesling (Santa Ynez Valley)","country":"US","winery":"Firestone","color":"White","year":2010,"geocode":{"lat":34.712647,"lng":-120.1438483},"address":"5017 Zaca Station Rd, Los Olivos, CA 93441, USA"},{"title":"Kenwood 2009 Jack London Vineyard Cabernet Sauvignon (Sonoma Valley)","country":"US","winery":"Kenwood","color":"White","year":2009},{"title":"Michel Redde et Fils 2010 Les Tuilières  (Sancerre)","country":"France","winery":"Michel Redde et Fils","color":"White","year":2010,"geocode":{"lat":47.3074244,"lng":2.9451899},"address":"58150 Saint-Andelain, France"},{"title":"Paumanok 2005 Tuthills Lane Vineyard Cabernet Sauvignon (North Fork of Long Island)","country":"US","winery":"Paumanok","color":"White","year":2005,"geocode":{"lat":40.9490272,"lng":-72.60366979999999},"address":"1074 Main Rd, Aquebogue, NY 11931, USA"},{"title":"Paumanok 2010 Semi Dry Riesling (North Fork of Long Island)","country":"US","winery":"Paumanok","color":"White","year":2010},{"title":"Echeverria 2009 Founder's Selection Cabernet Sauvignon (Maipo Valley)","country":"Chile","winery":"Echeverria","color":"White","year":2009},{"title":"El Huique 2009 Reserve Cabernet Sauvignon (Colchagua Valley)","country":"Chile","winery":"El Huique","color":"White","year":2009,"geocode":{"lat":-34.6499872,"lng":-71.3086612},"address":"3130000, Carretera del vino km 37 Viu Manent, Santa Cruz, O'Higgins, Chile"},{"title":"Seven Hills 2009 Klipsun Vineyard Cabernet Sauvignon (Red Mountain)","country":"US","winery":"Seven Hills","color":"White","year":2009},{"title":"Skouras 2011 Georges Skouras Moschofilero (Peloponnese)","country":"Greece","winery":"Skouras","color":"White","year":2011},{"title":"Vignoble Brisebarre 2009 Sec  (Vouvray)","country":"France","winery":"Vignoble Brisebarre","color":"White","year":2009},{"title":"Anthony Nappa 2010 Luminous Riesling (Finger Lakes)","country":"US","winery":"Anthony Nappa","color":"White","year":2010},{"title":"Bernardus 2010 Sierra Mar Vineyard Chardonnay (Santa Lucia Highlands)","country":"US","winery":"Bernardus","color":"White","year":2010,"geocode":{"lat":36.4791983,"lng":-121.7304897},"address":"5 W Carmel Valley Rd, Carmel Valley, CA 93924, USA"},{"title":"Ispiri 2009 Pine Mountain-Cloverdale Peak Cabernet Sauvignon (Sonoma County)","country":"US","winery":"Ispiri","color":"White","year":2009,"geocode":{"lat":44.92046819999999,"lng":-92.9484641},"address":"7779 Afton Rd, Woodbury, MN 55125, USA"},{"title":"Château la Louvière 2012  Pessac-Léognan","country":"France","winery":"Château la Louvière","color":"White","year":2012,"geocode":{"lat":44.737642,"lng":-0.5800295999999999},"address":"149 Av. de Cadaujac, 33850 Léognan, France"},{"title":"Domaine Vacheron 2012 Chambrates  (Sancerre)","country":"France","winery":"Domaine Vacheron","color":"White","year":2012,"geocode":{"lat":47.3295669,"lng":2.838045},"address":"1 Rue du Puits Poulton, 18300 Sancerre, France"},{"title":"Testarossa 2012 Fogstone Vineyard Chardonnay (Santa Lucia Highlands)","country":"US","winery":"Testarossa","color":"White","year":2012,"geocode":{"lat":37.21347799999999,"lng":-121.981544},"address":"300 College Ave, Los Gatos, CA 95030, USA"},{"title":"Château de France 2012  Pessac-Léognan","country":"France","winery":"Château de France","color":"White","year":2012,"geocode":{"lat":44.715818,"lng":-0.609204},"address":"98 Av. de Mont de Marsan, 33850 Léognan, France"},{"title":"Domaine Vacheron 2011 Le Paradis  (Sancerre)","country":"France","winery":"Domaine Vacheron","color":"White","year":2011},{"title":"Château Bélingard 2014 Bélingard Blanc White (Bergerac Sec)","country":"France","winery":"Château Bélingard","color":"White","year":2014,"geocode":{"lat":44.7997879,"lng":0.4332303},"address":"Château Belingard, 24240 Pomport, France"},{"title":"Piattelli 2012 Premium Reserve Cabernet Sauvignon (Luján de Cuyo)","country":"Argentina","winery":"Piattelli","color":"White","year":2012},{"title":"Max Ferd. Richter 2014 Mülheimer Sonnenlay Kabinett Feinherb Riesling (Mosel)","country":"Germany","winery":"Max Ferd. Richter","color":"White","year":2014,"geocode":{"lat":49.913374,"lng":7.014621999999999},"address":"Hauptstraße 85, 54486 Mülheim (Mosel), Germany"},{"title":"Nora 2014 Albariño (Rías Baixas)","country":"Spain","winery":"Nora","color":"White","year":2014,"geocode":{"lat":42.0813035,"lng":-8.4342471},"address":"Bruñeiras 7, 36440 Bruñeiras, Pontevedra, Spain"},{"title":"José Maria da Fonseca 2014 Colecção Privada Verdelho (Península de Setúbal)","country":"Portugal","winery":"José Maria da Fonseca","color":"White","year":2014,"geocode":{"lat":38.51812779999999,"lng":-9.0154333},"address":"R. José Augusto Coelho 12a, 2925-538 Azeitão, Portugal"},{"title":"La Val 2014 Albariño (Rías Baixas)","country":"Spain","winery":"La Val","color":"White","year":2014},{"title":"Heritance 2014 Sauvignon Blanc (Napa Valley)","country":"US","winery":"Heritance","color":"White","year":2014},{"title":"HPSepicurean 2013 Rosé (Mosel)","country":"Germany","winery":"HPSepicurean","color":"White","year":2013,"geocode":{"lat":33.0460406,"lng":-116.8763981},"address":"432 Maple St #4, Ramona, CA 92065, USA"},{"title":"Kaiken 2015 Terroir Series Torrontés (Salta)","country":"Argentina","winery":"Kaiken","color":"White","year":2015,"geocode":{"lat":-33.0400625,"lng":-68.937163},"address":"Roque Sáenz Peña 5516, Mendoza, Argentina"},{"title":"Zuccardi 2013 Serie A Cabernet Sauvignon (Valle de Uco)","country":"Argentina","winery":"Zuccardi","color":"White","year":2013},{"title":"Von Schleinitz 2012 HD Riesling (Mosel)","country":"Germany","winery":"Von Schleinitz","color":"White","year":2012},{"title":"Inception 2013 Chardonnay (Santa Barbara County)","country":"US","winery":"Inception","color":"White","year":2013,"geocode":{"lat":28.6273806,"lng":-81.76872499999999},"address":"19239 US-27, Clermont, FL 34715, USA"},{"title":"Lucky Neko 2014 Pinot Grigio (Rheinhessen)","country":"Germany","winery":"Lucky Neko","color":"White","year":2014},{"title":"Mathern 2014 Gutsriesling Dry Riesling (Nahe)","country":"Germany","winery":"Mathern","color":"White","year":2014,"geocode":{"lat":49.8022891,"lng":7.783637},"address":"Winzerstraße 5, 55585 Niederhausen, Germany"},{"title":"McManis 2014 Viognier (River Junction)","country":"US","winery":"McManis","color":"White","year":2014},{"title":"Adega Mãe 2014 Dory White (Lisboa)","country":"Portugal","winery":"Adega Mãe","color":"White","year":2014,"geocode":{"lat":39.0487833,"lng":-9.2956305},"address":"Estrada Municipal 554, 2565-841, Portugal"},{"title":"Encanto 2014 Godello (Bierzo)","country":"Spain","winery":"Encanto","color":"White","year":2014},{"title":"Mauro Sebaste 2010  Roero Arneis","country":"Italy","winery":"Mauro Sebaste","color":"White","year":2010,"geocode":{"lat":44.64976350000001,"lng":7.979176699999999},"address":"Via Garibaldi, 222 bis, 12051 Gallo CN, Italy"},{"title":"Mulderbosch 2011 Cabernet Sauvignon Rosé (Coastal Region)","country":"South Africa","winery":"Mulderbosch","color":"White","year":2011},{"title":"Navarro 2009 Late Harvest Sweet Gewürztraminer (Anderson Valley)","country":"US","winery":"Navarro","color":"White","year":2009,"geocode":{"lat":39.095839,"lng":-123.482162},"address":"5601 CA-128, Philo, CA 95466, USA"},{"title":"Nuna 2011 Reserve Torrontés (Salta)","country":"Argentina","winery":"Nuna","color":"White","year":2011,"geocode":{"lat":39.0249596,"lng":-78.2842359},"address":"8043 Main St, Middletown, VA 22645, USA"},{"title":"Paul Cluver 2009 Riesling (Elgin)","country":"South Africa","winery":"Paul Cluver","color":"White","year":2009,"geocode":{"lat":-34.1687417,"lng":19.0855573},"address":"Paul Cluver Estate Wines, N2, Kromco Turn off, De Rust Estate, Grabouw, 7160, South Africa"},{"title":"Peter Zemmer 2007 Cortinie Bianco White (Vigneti delle Dolomiti)","country":"Italy","winery":"Peter Zemmer","color":"White","year":2007},{"title":"Robertson Winery 2011 Sauvignon Blanc (Robertson)","country":"South Africa","winery":"Robertson Winery","color":"White","year":2011,"geocode":{"lat":-33.8082084,"lng":19.8755435},"address":"54 Voortrekker Ave, Robertson, 6705, South Africa"},{"title":"Rued 2007 Cabernet Sauvignon (Dry Creek Valley)","country":"US","winery":"Rued","color":"White","year":2007},{"title":"Salvano 2009  Roero Arneis","country":"Italy","winery":"Salvano","color":"White","year":2009},{"title":"Salvatore Principe 2010 In The Groove Chardonnay (California)","country":"US","winery":"Salvatore Principe","color":"White","year":2010,"geocode":{"lat":33.0246389,"lng":-116.9328846},"address":"18425 Highland Valley Rd, Ramona, CA 92065, USA"},{"title":"Talamonti 2009 Trabocchetto Pecorino (Colline Pescaresi)","country":"Italy","winery":"Talamonti","color":"White","year":2009},{"title":"Collavini 2010 Villa Canlungo Black Label Pinot Grigio (Collio)","country":"Italy","winery":"Collavini","color":"White","year":2010,"geocode":{"lat":45.99516269999999,"lng":13.4421301},"address":"Via della Ribolla Gialla, 2, 33040, 33040 Corno di Rosazzo UD, Italy"},{"title":"Comelli 2010 Sauvignon (Colli Orientali del Friuli)","country":"Italy","winery":"Comelli","color":"White","year":2010},{"title":"Cueva de las Manos 2010 Reserve Cabernet Sauvignon (Mendoza)","country":"Argentina","winery":"Cueva de las Manos","color":"White","year":2010,"geocode":{"lat":-47.15222139999999,"lng":-70.66270349999999},"address":"Santa Cruz Province, Argentina"},{"title":"Decoy 2010 Chardonnay (Sonoma County)","country":"US","winery":"Decoy","color":"White","year":2010},{"title":"Ermacora 2010 Friulano (Colli Orientali del Friuli)","country":"Italy","winery":"Ermacora","color":"White","year":2010,"geocode":{"lat":46.0427449,"lng":13.41091},"address":"Via Solzaredo, 9, 33040 Ipplis UD, Italy"},{"title":"Frog's Leap 2009 Cabernet Sauvignon (Napa Valley)","country":"US","winery":"Frog's Leap","color":"White","year":2009},{"title":"Abbazia di Novacella 2010 Müller-Thurgau (Alto Adige)","country":"Italy","winery":"Abbazia di Novacella","color":"White","year":2010,"geocode":{"lat":46.7426932,"lng":11.6484637},"address":"Via Abbazia, 1, 39040 Novacella BZ, Italy"},{"title":"Bibi Graetz 2010 Testamatta Cicala del Giglio Ansonica (Toscana)","country":"Italy","winery":"Bibi Graetz","color":"White","year":2010,"geocode":{"lat":43.8065648,"lng":11.2926592},"address":"Piazza Mino da Fiesole, 37, 50014 Fiesole FI, Italy"},{"title":"Cantina Cincinnato 2010 Castore White (Lazio)","country":"Italy","winery":"Cantina Cincinnato","color":"White","year":2010,"geocode":{"lat":41.6346652,"lng":12.898065},"address":"Via Cori Cisterna, 23, 04010 Cori LT, Italy"},{"title":"Cantina Produttori San Michele Appiano 2010 Pinot Grigio (Alto Adige)","country":"Italy","winery":"Cantina Produttori San Michele Appiano","color":"White","year":2010,"geocode":{"lat":46.452386,"lng":11.2682121},"address":"Via Circonvallazione, 17-19, 39057 Appiano sulla strada del vino BZ, Italy"},{"title":"Valle Reale 2009 Vigneto Vigne Nuove  (Montepulciano d'Abruzzo Cerasuolo)","country":"Italy","winery":"Valle Reale","color":"White","year":2009},{"title":"Wine by Joe 2010 Pinot Gris (Oregon)","country":"US","winery":"Wine by Joe","color":"White","year":2010,"geocode":{"lat":45.2784954,"lng":-123.0086423},"address":"239 SE 5th St, Dundee, OR 97115, USA"},{"title":"Gérard Bertrand 2010 Réserve Spéciale Chardonnay (Pays d'Oc)","country":"France","winery":"Gérard Bertrand","color":"White","year":2010},{"title":"Lemelson 2010 Tikka's Run Pinot Gris (Willamette Valley)","country":"US","winery":"Lemelson","color":"White","year":2010},{"title":"Meli 2010 Riesling (Central Valley)","country":"Chile","winery":"Meli","color":"White","year":2010},{"title":"Page Mill Winery 2010 Sauvignon Blanc (Livermore Valley)","country":"US","winery":"Page Mill Winery","color":"White","year":2010,"geocode":{"lat":37.6691513,"lng":-121.7459135},"address":"1960 S Livermore Ave, Livermore, CA 94550, USA"},{"title":"Producteurs Plaimont 2011 Colombelle L'Original Blanc White (Côtes de Gascogne)","country":"France","winery":"Producteurs Plaimont","color":"White","year":2011,"geocode":{"lat":43.9465263,"lng":0.361655},"address":"59 Av. des Mousquetaires, 32100 Condom, France"},{"title":"Producteurs Plaimont 2011 Colombelle L'Original Rosé (Côtes de Gascogne)","country":"France","winery":"Producteurs Plaimont","color":"White","year":2011,"geocode":{"lat":43.9465263,"lng":0.361655},"address":"59 Av. des Mousquetaires, 32100 Condom, France"},{"title":"Tyler Florence 2009 Blend #5 Cabernet Sauvignon (Napa Valley)","country":"US","winery":"Tyler Florence","color":"White","year":2009},{"title":"Calcu 2011 Reserva Rosé (Colchagua Valley)","country":"Chile","winery":"Calcu","color":"White","year":2011,"geocode":{"lat":-33.4113606,"lng":-70.5799524},"address":"Los Militares 4777, Las Condes, Región Metropolitana, Chile"},{"title":"Summerland 2013 Chardonnay (Santa Barbara County)","country":"US","winery":"Summerland","color":"White","year":2013},{"title":"Summerland 2013 Happy Canyon Cabernet Sauvignon (Santa Barbara County)","country":"US","winery":"Summerland","color":"White","year":2013,"geocode":{"lat":34.4216299,"lng":-119.5992437},"address":"2330 Lillie Ave, Summerland, CA 93067, USA"},{"title":"Swiftwater Cellars 2013 No. 9 Riesling (Columbia Valley (WA))","country":"US","winery":"Swiftwater Cellars","color":"White","year":2013,"geocode":{"lat":47.20824,"lng":-120.996962},"address":"301 Rope Rider Dr, Cle Elum, WA 98922, USA"},{"title":"Bonneau 2011 Cabernet Sauvignon (Sonoma Valley)","country":"US","winery":"Bonneau","color":"White","year":2011},{"title":"Hunnicutt 2011 Cabernet Sauvignon (Calistoga)","country":"US","winery":"Hunnicutt","color":"White","year":2011},{"title":"Lieb 2013 Bridge Lane Chardonnay (North Fork of Long Island)","country":"US","winery":"Lieb","color":"White","year":2013,"geocode":{"lat":41.0361589,"lng":-72.5043341},"address":"13050 Oregon Rd, Cutchogue, NY 11935, USA"},{"title":"Milbrandt 2013 The Estates Viognier (Wahluke Slope)","country":"US","winery":"Milbrandt","color":"White","year":2013},{"title":"Domaine Charles Baur 2012 Cuvée Charles Riesling (Alsace)","country":"France","winery":"Domaine Charles Baur","color":"White","year":2012},{"title":"Domaine Jean Sipp 2012 Vieilles Vignes Riesling (Alsace)","country":"France","winery":"Domaine Jean Sipp","color":"White","year":2012},{"title":"Dunstan 2013 Durell Vineyard Rosé (Sonoma Coast)","country":"US","winery":"Dunstan","color":"White","year":2013},{"title":"First Press 2013 Sauvignon Blanc (Napa Valley)","country":"US","winery":"First Press","color":"White","year":2013,"geocode":{"lat":34.1827929,"lng":-118.3111202},"address":"316 N San Fernando Blvd, Burbank, CA 91502, USA"},{"title":"Santa Alicia 2012 Gran Reserva de Los Andes Cabernet Sauvignon (Maipo Valley)","country":"Chile","winery":"Santa Alicia","color":"White","year":2012,"geocode":{"lat":-33.6721392,"lng":-70.5404435},"address":"Circunvalación Máximo Valdés 4135, Pirque, Región Metropolitana, Chile"},{"title":"Sparkman 2013 Pearl Sauvignon Blanc (Columbia Valley (WA))","country":"US","winery":"Sparkman","color":"White","year":2013,"geocode":{"lat":47.7345797,"lng":-122.1481035},"address":"14300 NE 145th St #102, Woodinville, WA 98072, USA"},{"title":"J. Rochioli 2011 Sweetwater Chardonnay (Russian River Valley)","country":"US","winery":"J. Rochioli","color":"White","year":2011,"geocode":{"lat":38.53513299999999,"lng":-122.8672549},"address":"6192 Westside Rd, Healdsburg, CA 95448, USA"},{"title":"Domaine de la Mordorée 2010 La Reine des Bois Red (Châteauneuf-du-Pape)","country":"France","winery":"Domaine de la Mordorée","color":"White","year":2010,"geocode":{"lat":44.011567,"lng":4.705892},"address":"250 Chem. des Oliviers, 30126 Tavel, France"},{"title":"Domaine Isabel Ferrando 2010 Colombis Red (Châteauneuf-du-Pape)","country":"France","winery":"Domaine Isabel Ferrando","color":"White","year":2010},{"title":"Domaine Luc et Lise Pavelot 2011  Corton-Charlemagne","country":"France","winery":"Domaine Luc et Lise Pavelot","color":"White","year":2011,"geocode":{"lat":47.0791361,"lng":4.8521709},"address":"6 Rue du Paulant, 21420 Pernand-Vergelesses, France"},{"title":"Château de la Font du Loup 2010 Le Puy Rolland Red (Châteauneuf-du-Pape)","country":"France","winery":"Château de la Font du Loup","color":"White","year":2010},{"title":"Communication Block 2010 Lampyridae Vineyards Cabernet Sauvignon (Mount Veeder)","country":"US","winery":"Communication Block","color":"White","year":2010},{"title":"Gustave Lorentz 2010 Réserve Pinot Gris (Alsace)","country":"France","winery":"Gustave Lorentz","color":"White","year":2010},{"title":"Mission Estate 2010 Chardonnay (Hawke's Bay)","country":"New Zealand","winery":"Mission Estate","color":"White","year":2010,"geocode":{"lat":-39.5173313,"lng":176.8456982},"address":"198 Church Road, Poraiti, Napier 4112, New Zealand"},{"title":"Andriano 2011 Pinot Grigio (Alto Adige)","country":"Italy","winery":"Andriano","color":"White","year":2011,"geocode":{"lat":46.5196516,"lng":11.2329808},"address":"Wehrburgstraße, 5, 39010 Andrian, Autonome Provinz Bozen - Südtirol, Italy"},{"title":"Antica 2009 Cabernet Sauvignon (Napa Valley)","country":"US","winery":"Antica","color":"White","year":2009},{"title":"Cave de Beblenheim 2010 Baron de Hoen Riesling (Alsace)","country":"France","winery":"Cave de Beblenheim","color":"White","year":2010,"geocode":{"lat":48.15898070000001,"lng":7.3268589},"address":"14 Rue de Hoen, 68980 Beblenheim, France"},{"title":"Willm 2009 Kirchberg de Barr Grand Cru Riesling (Alsace)","country":"France","winery":"Willm","color":"White","year":2009},{"title":"L. Tramier & Fils 2010  Pouilly-Fuissé","country":"France","winery":"L. Tramier & Fils","color":"White","year":2010,"geocode":{"lat":46.838985,"lng":4.716182},"address":"14 Rue de Chamerose, 71640 Mercurey, France"},{"title":"Malibràn 2010 5 Grammi Brut  (Conegliano Valdobbiadene Prosecco Superiore)","country":"Italy","winery":"Malibràn","color":"White","year":2010,"geocode":{"lat":45.8417815,"lng":12.2330511},"address":"Via Barca II°, 63, 31058 Susegana TV, Italy"},{"title":"Malibràn 2011 Millesimato Dry  (Conegliano Valdobbiadene Prosecco Superiore)","country":"Italy","winery":"Malibràn","color":"White","year":2011,"geocode":{"lat":45.8417815,"lng":12.2330511},"address":"Via Barca II°, 63, 31058 Susegana TV, Italy"},{"title":"Mount Veeder 2007 Reserve Cabernet Sauvignon (Napa Valley)","country":"US","winery":"Mount Veeder","color":"White","year":2007},{"title":"Perlage 2010 Col di Manza Millesimato Rive di Ogliano Extra Dry  (Conegliano Valdobbiadene Prosecco Superiore)","country":"Italy","winery":"Perlage","color":"White","year":2010,"geocode":{"lat":45.9042572,"lng":12.1426707},"address":"Via Cal del Muner, 16, 31010 Farra di Soligo TV, Italy"},{"title":"Coelho 2011 Estate Renovação Pinot Gris (Willamette Valley)","country":"US","winery":"Coelho","color":"White","year":2011,"geocode":{"lat":45.1152863,"lng":-123.2072089},"address":"111 5th St, Amity, OR 97101, USA"},{"title":"Col Vetoraz Spumanti 2011 Brut  (Conegliano Valdobbiadene Prosecco Superiore)","country":"Italy","winery":"Col Vetoraz Spumanti","color":"White","year":2011,"geocode":{"lat":45.9019348,"lng":12.0319449},"address":"Str. delle Treziese, 1, 31049 Valdobbiadene TV, Italy"},{"title":"Holly's Hill 2010 Estate Roussanne (El Dorado)","country":"US","winery":"Holly's Hill","color":"White","year":2010},{"title":"Roux Père et Fils 2010  Pouilly-Fuissé","country":"France","winery":"Roux Père et Fils","color":"White","year":2010,"geocode":{"lat":46.946013,"lng":4.704598},"address":"42 Rue des Lavières, 21190 Saint-Aubin, France"},{"title":"Terrazas de Los Andes 2011 Reserva Torrontés (Salta)","country":"Argentina","winery":"Terrazas de Los Andes","color":"White","year":2011},{"title":"Conti Formentini 2010 Pinot Grigio (Collio)","country":"Italy","winery":"Conti Formentini","color":"White","year":2010,"geocode":{"lat":45.9826314,"lng":13.5885271},"address":"Via Oslavia, 5, 34070 San Floriano del Collio GO, Italy"},{"title":"Turnbull 2008 Fortuna Cabernet Sauvignon (Oakville)","country":"US","winery":"Turnbull","color":"White","year":2008},{"title":"Lujon 2009 Pinot Gris (Willamette Valley)","country":"US","winery":"Lujon","color":"White","year":2009},{"title":"Williams Selyem 2009 Drake Estate Vineyard Chardonnay (Russian River Valley)","country":"US","winery":"Williams Selyem","color":"White","year":2009,"geocode":{"lat":38.5207468,"lng":-122.8688594},"address":"7227 Westside Rd, Healdsburg, CA 95448, USA"},{"title":"Joh. Jos. Prüm 2009 Wehlener Sonnenuhr Auslese Riesling (Mosel)","country":"Germany","winery":"Joh. Jos. Prüm","color":"White","year":2009},{"title":"Stuhlmuller Vineyards 2008 Reserve Cabernet Sauvignon (Alexander Valley)","country":"US","winery":"Stuhlmuller Vineyards","color":"White","year":2008},{"title":"Bodega Catena Zapata 2009 White Stones Adrianna Vineyard Chardonnay (Mendoza)","country":"Argentina","winery":"Bodega Catena Zapata","color":"White","year":2009},{"title":"Bründlmayer 2010 Alte Reben Reserve Grüner Veltliner (Kamptal)","country":"Austria","winery":"Bründlmayer","color":"White","year":2010},{"title":"Corvalle 2010 Weka Ranch Vineyard Chardonnay (Oak Knoll District)","country":"US","winery":"Corvalle","color":"White","year":2010},{"title":"Inception 2010 Viognier (Santa Barbara County)","country":"US","winery":"Inception","color":"White","year":2010},{"title":"Anthonij Rupert 2007 Cabernet Sauvignon (Coastal Region)","country":"South Africa","winery":"Anthonij Rupert","color":"White","year":2007},{"title":"Broman 2006 Reserve Cabernet Sauvignon (Napa Valley)","country":"US","winery":"Broman","color":"White","year":2006,"geocode":{"lat":38.5497051,"lng":-122.4691672},"address":"945 Deer Park Rd, St Helena, CA 94574, USA"},{"title":"Caymus 2009 Cabernet Sauvignon (Napa Valley)","country":"US","winery":"Caymus","color":"White","year":2009},{"title":"Domaine Rotier 2008 Renaissance Doux Loin de l'Oeil (Gaillac Doux)","country":"France","winery":"Domaine Rotier","color":"White","year":2008,"geocode":{"lat":43.8740605,"lng":1.98438},"address":"Petit Nareye, 2833 route de Lagrave, 81600 Cadalen, France"},{"title":"Elena Walch 2008 Castel Ringberg Riserva Chardonnay (Alto Adige)","country":"Italy","winery":"Elena Walch","color":"White","year":2008},{"title":"Frisk 2015 Prickly Riesling (Alpine Valleys)","country":"Australia","winery":"Frisk","color":"White","year":2015},{"title":"Calcu 2016 Reserva Especial Rosé (Colchagua Valley)","country":"Chile","winery":"Calcu","color":"White","year":2016},{"title":"Capolino Perlingieri 2015 Vento Greco (Sannio)","country":"Italy","winery":"Capolino Perlingieri","color":"White","year":2015},{"title":"Columbia Crest 2015 Reserve Chenin Blanc (Horse Heaven Hills)","country":"US","winery":"Columbia Crest","color":"White","year":2015},{"title":"Concha y Toro 2015 Marques de Casa Concha Chardonnay (Limarí Valley)","country":"Chile","winery":"Concha y Toro","color":"White","year":2015,"geocode":{"lat":-33.635605,"lng":-70.57401949999999},"address":"Av. Virginia Subercaseaux 210, Pirque, Región Metropolitana, Chile"},{"title":"Contini 2015 Elibaria  (Vermentino di Gallura)","country":"Italy","winery":"Contini","color":"White","year":2015,"geocode":{"lat":39.9337502,"lng":8.5290407},"address":"Via Genova, 48, 09072 Cabras OR, Italy"},{"title":"Fiuza 2016 3 Castas White (Tejo)","country":"Portugal","winery":"Fiuza","color":"White","year":2016},{"title":"Guidi 1929 2015  Vernaccia di San Gimignano","country":"Italy","winery":"Guidi 1929","color":"White","year":2015},{"title":"Kenwood 2015 Chardonnay (Sonoma County)","country":"US","winery":"Kenwood","color":"White","year":2015,"geocode":{"lat":38.416739,"lng":-122.543335},"address":"9592 Sonoma Hwy, Kenwood, CA 95452, USA"},{"title":"La Mormoraia 2014 Riserva  (Vernaccia di San Gimignano)","country":"Italy","winery":"La Mormoraia","color":"White","year":2014,"geocode":{"lat":43.5017856,"lng":11.0526538},"address":"Località S. Andrea, 53037 San Gimignano SI, Italy"},{"title":"Maddalena 2012 Cabernet Sauvignon (Paso Robles)","country":"US","winery":"Maddalena","color":"White","year":2012},{"title":"Mercer 2014 Cabernet Sauvignon (Horse Heaven Hills)","country":"US","winery":"Mercer","color":"White","year":2014},{"title":"Morini 2015 Sette Note Secco Albana (Romagna)","country":"Italy","winery":"Morini","color":"White","year":2015,"geocode":{"lat":38.8734362,"lng":-77.0015286},"address":"301 Water St SE, Washington, DC 20003, USA"},{"title":"Nicolas Potel 2013 La Pucelle Premier Cru  (Rully)","country":"France","winery":"Nicolas Potel","color":"White","year":2013},{"title":"Palagetto 2013 Riserva  (Vernaccia di San Gimignano)","country":"Italy","winery":"Palagetto","color":"White","year":2013,"geocode":{"lat":43.4566106,"lng":11.033863},"address":"Via Racciano, 10, 53037 San Gimignano SI, Italy"},{"title":"Santa Rita 2016 120 Reserva Especial Chardonnay (Central Valley)","country":"Chile","winery":"Santa Rita","color":"White","year":2016},{"title":"Philippe Viallet 2015 Apremont Vieilles Vignes Jacquère (Savoie)","country":"France","winery":"Philippe Viallet","color":"White","year":2015},{"title":"Poet's Leap 2015 Riesling (Columbia Valley (WA))","country":"US","winery":"Poet's Leap","color":"White","year":2015,"geocode":{"lat":47.7322201,"lng":-122.1405493},"address":"14450 Woodinville - Redmond Rd NE, Woodinville, WA 98072, USA"},{"title":"Macari 2015 Katherine's Field Sauvignon Blanc (North Fork of Long Island)","country":"US","winery":"Macari","color":"White","year":2015,"geocode":{"lat":40.986564,"lng":-72.568006},"address":"150 Bergen Ave, Mattituck, NY 11952, USA"},{"title":"Toad Hollow 2015 Francine's Selection Unoaked Chardonnay (Mendocino County)","country":"US","winery":"Toad Hollow","color":"White","year":2015},{"title":"Snoqualmie 2014 Reserve Cabernet Sauvignon (Columbia Valley (WA))","country":"US","winery":"Snoqualmie","color":"White","year":2014},{"title":"Swiftwater Cellars 2015 Zephyr Ridge Estate Bottled Chardonnay (Horse Heaven Hills)","country":"US","winery":"Swiftwater Cellars","color":"White","year":2015,"geocode":{"lat":47.20824,"lng":-120.996962},"address":"301 Rope Rider Dr, Cle Elum, WA 98922, USA"},{"title":"Domaine Chenevières 2015 Les Grandes Vignes  (Chablis)","country":"France","winery":"Domaine Chenevières","color":"White","year":2015,"geocode":{"lat":46.4148609,"lng":4.7829326},"address":"230 Rte d'Azé, 71260 Saint-Maurice-de-Satonnay, France"},{"title":"Fox Run 2012 Riesling 11 Lake Dana Vineyard Riesling (Finger Lakes)","country":"US","winery":"Fox Run","color":"White","year":2012},{"title":"Olivier Leflaive 2014 Les Cloux Premier Cru  (Rully)","country":"France","winery":"Olivier Leflaive","color":"White","year":2014},{"title":"Atwater 2013 Blanc de Blancs Méthode Champenoise Chardonnay (Finger Lakes)","country":"US","winery":"Atwater","color":"White","year":2013,"geocode":{"lat":42.47848210000001,"lng":-76.869326},"address":"5055 NY-414, Burdett, NY 14818, USA"},{"title":"Vignerons de Buxy 2014 Les Chaniots Premier Cru  (Montagny)","country":"France","winery":"Vignerons de Buxy","color":"White","year":2014,"geocode":{"lat":46.7130902,"lng":4.704763},"address":"4-6 Rte de Chalon, 71390 Buxy, France"},{"title":"Brian Carter Cellars 2014 Oriana White (Yakima Valley)","country":"US","winery":"Brian Carter Cellars","color":"White","year":2014,"geocode":{"lat":47.7529306,"lng":-122.1592548},"address":"17311 135th Ave NE STE A450, Woodinville, WA 98072, USA"},{"title":"Ventana 2011 Le Mistral Red (Monterey County)","country":"US","winery":"Ventana","color":"White","year":2011,"geocode":{"lat":36.360799,"lng":-121.307074},"address":"38740 Los Coches Rd, Soledad, CA 93960, USA"},{"title":"Zepaltas 2012 Charles Heintz Vineyard Chardonnay (Sonoma Coast)","country":"US","winery":"Zepaltas","color":"White","year":2012},{"title":"Owen Roe 2012 Cabernet Sauvignon (Yakima Valley)","country":"US","winery":"Owen Roe","color":"White","year":2012,"geocode":{"lat":46.5191572,"lng":-120.4461433},"address":"309 Gangl Rd, Wapato, WA 98951, USA"},{"title":"Syncline 2012 Cuvée Elena Red (Columbia Valley (WA))","country":"US","winery":"Syncline","color":"White","year":2012},{"title":"Alcance 2014 Gran Reserva Cabernet Sauvignon (Maule Valley)","country":"Chile","winery":"Alcance","color":"White","year":2014},{"title":"Sawtooth 2013 Estate Grown Chardonnay","country":"US","winery":"Sawtooth","color":"White","year":2013},{"title":"Sawtooth 2015 Pinot Gris","country":"US","winery":"Sawtooth","color":"White","year":2015,"geocode":{"lat":43.5767591,"lng":-116.7792946},"address":"19348 Lowell Rd Building C, Caldwell, ID 83607, USA"},{"title":"Layer Cake 2015 Chardonnay (Central Coast)","country":"US","winery":"Layer Cake","color":"White","year":2015},{"title":"Liberty Lake 2013 Cabernet Sauvignon (Red Mountain)","country":"US","winery":"Liberty Lake","color":"White","year":2013,"geocode":{"lat":47.67762459999999,"lng":-117.096114},"address":"23110 E Knox Ave, Liberty Lake, WA 99019, USA"},{"title":"Malibu Rocky Oaks 2014 Collective 10 Year Anniversary Lot 1 Cabernet Sauvignon (California)","country":"US","winery":"Malibu Rocky Oaks","color":"White","year":2014,"geocode":{"lat":34.0999312,"lng":-118.8159812},"address":"Rocky Oaks Park, 107 Kanan Dume Rd, Malibu, CA 90265, USA"},{"title":"Alyris 2014 The Audition Chardonnay (Carneros)","country":"US","winery":"Alyris","color":"White","year":2014,"geocode":{"lat":38.441556,"lng":-122.586264},"address":"7335 CA-12, Kenwood, CA 95409, USA"},{"title":"Boomtown 2014 Cabernet Sauvignon (Columbia Valley (WA))","country":"US","winery":"Boomtown","color":"White","year":2014,"geocode":{"lat":39.5602026,"lng":-120.8287311},"address":"200 Main St # B, Downieville, CA 95936, USA"},{"title":"Valdivieso 2015 Valley Selection Gran Reserva Sauvignon Blanc (Leyda Valley)","country":"Chile","winery":"Valdivieso","color":"White","year":2015},{"title":"Broken Earth 2015 Vermentino (Paso Robles)","country":"US","winery":"Broken Earth","color":"White","year":2015,"geocode":{"lat":35.5918578,"lng":-120.6940998},"address":"1650 Ramada Dr, Paso Robles, CA 93446, USA"},{"title":"Carpineto 2015 Farnito Chardonnay (Toscana)","country":"Italy","winery":"Carpineto","color":"White","year":2015,"geocode":{"lat":43.595557,"lng":11.3860055},"address":"SP 16 Chianti-Valdarno, 50022 Greve FI, Italy"},{"title":"Prieler 2016 Ried Seeberg Pinot Blanc (Burgenland)","country":"Austria","winery":"Prieler","color":"White","year":2016,"geocode":{"lat":47.8547373,"lng":16.6301404},"address":"Hauptstraße 181, 7081 Schützen am Gebirge, Austria"},{"title":"Rôtie Cellars 2015 Northern Blend Red (Walla Walla Valley (WA))","country":"US","winery":"Rôtie Cellars","color":"White","year":2015},{"title":"Schloss Gobelsburg 2016 Ried Steinsetz Grüner Veltliner (Kamptal)","country":"Austria","winery":"Schloss Gobelsburg","color":"White","year":2016,"geocode":{"lat":48.461037,"lng":15.69598},"address":"Schloss Str. 16, 3550, Austria"},{"title":"Shared Notes 2015 Les Pierres Qui Decident Sauvignon Blanc (Russian River Valley)","country":"US","winery":"Shared Notes","color":"White","year":2015,"geocode":{"lat":47.8751939,"lng":-120.1100503},"address":"78 Swartout Rd, Manson, WA 98831, USA"},{"title":"Stift Klosterneuburg 2016 Zierfandler-Rotgipfler (Thermenregion)","country":"Austria","winery":"Stift Klosterneuburg","color":"White","year":2016,"geocode":{"lat":48.3053201,"lng":16.3264427},"address":"Rathauspl. 24, 3400 Klosterneuburg, Austria"},{"title":"Strauss 2016 Ried Gamlitzberg Sauvignon Blanc (Südsteiermark)","country":"Austria","winery":"Strauss","color":"White","year":2016,"geocode":{"lat":46.6943503,"lng":15.5333831},"address":"Steinbach 16, 8462 Gamlitz, Austria"},{"title":"Weszeli 2016 Besse Fleur Riesling (Weinland Österreich)","country":"Austria","winery":"Weszeli","color":"White","year":2016},{"title":"Domaine Corne-Loup 2016  Tavel","country":"France","winery":"Domaine Corne-Loup","color":"White","year":2016},{"title":"Robert Mondavi 2015 Reserve To Kalon Vineyard Fumé Blanc (Napa Valley)","country":"US","winery":"Robert Mondavi","color":"White","year":2015},{"title":"Morell-Peña 2015 Ysabella Bjork Chardonnay (Columbia Valley (WA))","country":"US","winery":"Morell-Peña","color":"White","year":2015},{"title":"Neumeister 2016 Steirische Klassik Gelber Muskateller","country":"Germany","winery":"Neumeister","color":"White","year":2016},{"title":"Pierre Henri Morel 2014 White (Laudun)","country":"France","winery":"Pierre Henri Morel","color":"White","year":2014,"geocode":{"lat":40.7684892,"lng":-73.9589049},"address":"1355 2nd Ave, New York, NY 10021, USA"},{"title":"Tablas Creek 2014 Esprit de Tablas Grown and Bottled on the Estate Mourvèdre-Grenache-Syrah-Counoise Red (Adelaida District)","country":"US","winery":"Tablas Creek","color":"White","year":2014},{"title":"Tegernseerhof 2016 Terrassen Federspiel Riesling (Wachau)","country":"Austria","winery":"Tegernseerhof","color":"White","year":2016},{"title":"Terre Rouge 2016 Vin Gris d'Amour Rosé (Sierra Foothills)","country":"US","winery":"Terre Rouge","color":"White","year":2016},{"title":"Kale 2016 McGah Vineyard Rosé (Rutherford)","country":"US","winery":"Kale","color":"White","year":2016,"geocode":{"lat":38.3010772,"lng":-122.2822244},"address":"708 1st St, Napa, CA 94559, USA"},{"title":"L'Amandine 2011 Bel Air Red","country":"France","winery":"L'Amandine","color":"White","year":2011,"geocode":{"lat":44.23803239999999,"lng":5.0165072},"address":"480 Route de Roaix Quartier, Bélair, 84110 Seguret, France"},{"title":"Pommery 1998 Grand Cru Brut  (Champagne)","country":"France","winery":"Pommery","color":"White","year":1998},{"title":"Volker Eisele Family Estate 2006 Gemini White Wine White (Napa Valley)","country":"US","winery":"Volker Eisele Family Estate","color":"White","year":2006},{"title":"Masciarelli 2004 Marina Cvetic  (Trebbiano d'Abruzzo)","country":"Italy","winery":"Masciarelli","color":"White","year":2004},{"title":"Pierre Gimonnet et Fils 2002 Fleuron Premier Cru Blanc de Blancs Brut Chardonnay (Champagne)","country":"France","winery":"Pierre Gimonnet et Fils","color":"White","year":2002},{"title":"Arrowood 2003 Cabernet Sauvignon (Sonoma County)","country":"US","winery":"Arrowood","color":"White","year":2003},{"title":"Novelty Hill 2004 Cabernet Sauvignon (Columbia Valley (WA))","country":"US","winery":"Novelty Hill","color":"White","year":2004},{"title":"Robert Craig 2004 Cabernet Sauvignon (Mount Veeder)","country":"US","winery":"Robert Craig","color":"White","year":2004,"geocode":{"lat":38.2959192,"lng":-122.2896452},"address":"1553 2nd St, Napa, CA 94559, USA"},{"title":"Volpe Pasini 2005 Zuc di Volpe Pinot Bianco (Colli Orientali del Friuli)","country":"Italy","winery":"Volpe Pasini","color":"White","year":2005},{"title":"Woodward Canyon 2006 Chardonnay (Washington)","country":"US","winery":"Woodward Canyon","color":"White","year":2006},{"title":"Novelty Hill 2005 Stillwater Creek Vineyard Sémillon (Columbia Valley (WA))","country":"US","winery":"Novelty Hill","color":"White","year":2005},{"title":"Stevens 2004 Reserve Cabernet Sauvignon (Yakima Valley)","country":"US","winery":"Stevens","color":"White","year":2004,"geocode":{"lat":47.7619857,"lng":-122.1498313},"address":"18520 142nd Ave NE, Woodinville, WA 98072, USA"},{"title":"Syzygy 2004 Cabernet Sauvignon (Columbia Valley (WA))","country":"US","winery":"Syzygy","color":"White","year":2004},{"title":"R.H. Phillips 1999 Estate Bottled Viognier (Dunnigan Hills)","country":"US","winery":"R.H. Phillips","color":"White","year":1999},{"title":"Io 1997 Red (Santa Barbara County)","country":"US","winery":"Io","color":"White","year":1997},{"title":"Schug 1998 Chardonnay (Carneros)","country":"US","winery":"Schug","color":"White","year":1998},{"title":"Leonetti Cellar 1997 Cabernet Sauvignon (Columbia Valley (WA))","country":"US","winery":"Leonetti Cellar","color":"White","year":1997},{"title":"Domaine Laroche 1997 Les Blanchots  (Chablis)","country":"France","winery":"Domaine Laroche","color":"White","year":1997,"geocode":{"lat":47.816225,"lng":3.8003513},"address":"22 Rue Louis Bro, 89800 Chablis, France"},{"title":"Lundeen 2013 Juliard Vineyard Old Vine Riesling (Dundee Hills)","country":"US","winery":"Lundeen","color":"White","year":2013},{"title":"Paix Sur Terre 2014 Kiler Grove Vineyard Ugni Blanc (Paso Robles Willow Creek District)","country":"US","winery":"Paix Sur Terre","color":"White","year":2014,"geocode":{"lat":35.5647999,"lng":-120.7828605},"address":"5070 Vineyard Dr, Paso Robles, CA 93446, USA"},{"title":"Amici 2012 Reserve Cabernet Sauvignon (Napa Valley)","country":"US","winery":"Amici","color":"White","year":2012,"geocode":{"lat":38.6116182,"lng":-122.5924967},"address":"3130 Old Lawley Toll Rd, Calistoga, CA 94515, USA"},{"title":"Blakeslee 2013 Reserve Chardonnay (Chehalem Mountains)","country":"US","winery":"Blakeslee","color":"White","year":2013},{"title":"Domaine Cauhapé 2013 Ballet d'Octobre  (Jurançon)","country":"France","winery":"Domaine Cauhapé","color":"White","year":2013},{"title":"Domaine Nigri 2013 Pierre de Lune  (Jurançon Sec)","country":"France","winery":"Domaine Nigri","color":"White","year":2013},{"title":"Skouras 2013 Zoe White (Peloponnese)","country":"Greece","winery":"Skouras","color":"White","year":2013},{"title":"St. Urbans-Hof 2012 Nik Weis Schodener Saarfeilser Marienberg Grosse Lage Riesling (Mosel)","country":"Germany","winery":"St. Urbans-Hof","color":"White","year":2012},{"title":"I Giusti e Zanza 2014 Memorino White (Toscana)","country":"Italy","winery":"I Giusti e Zanza","color":"White","year":2014},{"title":"Markus Molitor 2012 Haus Klosterberg Feinherb Riesling (Mosel)","country":"Germany","winery":"Markus Molitor","color":"White","year":2012},{"title":"Nessa 2014 Albariño (Rías Baixas)","country":"Spain","winery":"Nessa","color":"White","year":2014},{"title":"Occasio 2012 Cabernet Sauvignon (Livermore Valley)","country":"US","winery":"Occasio","color":"White","year":2012},{"title":"Ponzi 2014 Pinot Gris (Willamette Valley)","country":"US","winery":"Ponzi","color":"White","year":2014,"geocode":{"lat":45.3797401,"lng":-122.9363463},"address":"19500 SW Mountain Home Rd, Sherwood, OR 97140, USA"},{"title":"Ponzi 2014 Pinot Noir Rosé (Willamette Valley)","country":"US","winery":"Ponzi","color":"White","year":2014},{"title":"S.A. Prüm 2012 Wehlener Sonnenuhr Kabinett Grosse Lage Riesling (Mosel)","country":"Germany","winery":"S.A. Prüm","color":"White","year":2012,"geocode":{"lat":49.9409323,"lng":7.0473137},"address":"Uferallee 25, 54470 Bernkastel-Kues, Germany"},{"title":"Schug 2013 Chardonnay (Sonoma Coast)","country":"US","winery":"Schug","color":"White","year":2013,"geocode":{"lat":38.2306966,"lng":-122.4767339},"address":"Schug Carneros Estate Winery, 602 Bonneau Rd, Sonoma, CA 95476, USA"},{"title":"Rooster Hill 2013 Dry Riesling (Finger Lakes)","country":"US","winery":"Rooster Hill","color":"White","year":2013},{"title":"Acacia 2012 Thornton Vineyard Chardonnay (Sonoma Coast)","country":"US","winery":"Acacia","color":"White","year":2012,"geocode":{"lat":38.2220829,"lng":-122.2660123},"address":"555 Gateway Dr, Napa, CA 94558, USA"},{"title":"Anthony Road 2013 Gewurztraminer (Finger Lakes)","country":"US","winery":"Anthony Road","color":"White","year":2013,"geocode":{"lat":42.705043,"lng":-76.97353},"address":"1020 Anthony Rd, Penn Yan, NY 14527, USA"},{"title":"Rutherford Hill 2013 Sauvignon Blanc (Napa Valley)","country":"US","winery":"Rutherford Hill","color":"White","year":2013,"geocode":{"lat":38.493681,"lng":-122.403795},"address":"200 Rutherford Hill Rd, Rutherford, CA 94573, USA"},{"title":"Scott Family 2013 Dijon Clone Chardonnay (Arroyo Seco)","country":"US","winery":"Scott Family","color":"White","year":2013},{"title":"Trinity Vineyards 2013 Viognier (Washington)","country":"US","winery":"Trinity Vineyards","color":"White","year":2013},{"title":"Chateau Lafayette Reneau 2012 Owner's Reserve Cabernet Sauvignon (Finger Lakes)","country":"US","winery":"Chateau Lafayette Reneau","color":"White","year":2012,"geocode":{"lat":42.4794231,"lng":-76.87088229999999},"address":"5081 NY-414, Hector, NY 14841, USA"},{"title":"St. Lucas 2006 Chardonnay (Mendoza)","country":"Argentina","winery":"St. Lucas","color":"White","year":2006,"geocode":{"lat":42.62787,"lng":-76.71015400000002},"address":"3862 County Rd 150, Interlaken, NY 14847, USA"},{"title":"Cantina del Taburno 2007 Amineo Coda di Volpe (Beneventano)","country":"Italy","winery":"Cantina del Taburno","color":"White","year":2007},{"title":"Mastroberardino 2007 White (Lacryma Christi del Vesuvio)","country":"Italy","winery":"Mastroberardino","color":"White","year":2007},{"title":"Yangarra Estate Vineyard 2007 Single Vineyard Unoaked Chardonnay (McLaren Vale)","country":"Australia","winery":"Yangarra Estate Vineyard","color":"White","year":2007,"geocode":{"lat":-35.1575524,"lng":138.6415318},"address":"809 McLaren Flat Rd, Kangarilla SA 5157, Australia"},{"title":"Susana Balbo 2005 Cabernet Sauvignon (Mendoza)","country":"Argentina","winery":"Susana Balbo","color":"White","year":2005,"geocode":{"lat":-33.1154107,"lng":-68.9030964},"address":"Cochabamba 7801, M5509, Mendoza, Argentina"},{"title":"Feudo Arancio 2007 Grillo (Sicilia)","country":"Italy","winery":"Feudo Arancio","color":"White","year":2007},{"title":"Clos du Bois 2007 Sauvignon Blanc (North Coast)","country":"US","winery":"Clos du Bois","color":"White","year":2007},{"title":"Cosentino 2007 Pinot Grigio (Solano County)","country":"US","winery":"Cosentino","color":"White","year":2007,"geocode":{"lat":38.41924220000001,"lng":-122.3888066},"address":"7415 St Helena Hwy, Napa, CA 94558, USA"},{"title":"Chateau Ste. Michelle 2006 Indian Wells Chardonnay (Columbia Valley (WA))","country":"US","winery":"Chateau Ste. Michelle","color":"White","year":2006,"geocode":{"lat":47.7299119,"lng":-122.1508226},"address":"14111 NE 145th St, Woodinville, WA 98072, USA"},{"title":"Chateau Ste. Michelle 2007 Sauvignon Blanc (Columbia Valley (WA))","country":"US","winery":"Chateau Ste. Michelle","color":"White","year":2007},{"title":"Columbia Crest 2006 Grand Estates Chardonnay (Columbia Valley (WA))","country":"US","winery":"Columbia Crest","color":"White","year":2006,"geocode":{"lat":45.9570837,"lng":-119.6095194},"address":"178810 WA-221, Paterson, WA 99345, USA"},{"title":"Foxen 2005 Vogelzang Vineyard Cabernet Sauvignon (Santa Ynez Valley)","country":"US","winery":"Foxen","color":"White","year":2005,"geocode":{"lat":34.8201921,"lng":-120.2302395},"address":"7600 Foxen Canyon Rd, Santa Maria, CA 93454, USA"},{"title":"Frei Brothers 2006 Reserve Chardonnay (Russian River Valley)","country":"US","winery":"Frei Brothers","color":"White","year":2006},{"title":"Tsillan Cellars 2006 Estate-Barrel Select Chardonnay (Columbia Valley (WA))","country":"US","winery":"Tsillan Cellars","color":"White","year":2006,"geocode":{"lat":47.8348235,"lng":-120.0806173},"address":"3875 Hwy 97A, Chelan, WA 98816, USA"},{"title":"Kiamie 2007 White Kuvée White (Paso Robles)","country":"US","winery":"Kiamie","color":"White","year":2007},{"title":"Alta Vista 2006 Premium Cabernet Sauvignon (Mendoza)","country":"Argentina","winery":"Alta Vista","color":"White","year":2006},{"title":"Alta Vista 2007 Premium Torrontés (Salta)","country":"Argentina","winery":"Alta Vista","color":"White","year":2007},{"title":"Cobblestone 2004 Cabernet Sauvignon (Atlas Peak)","country":"US","winery":"Cobblestone","color":"White","year":2004},{"title":"Cosentino 2004 Cabernet Sauvignon (Napa County)","country":"US","winery":"Cosentino","color":"White","year":2004,"geocode":{"lat":38.41924220000001,"lng":-122.3888066},"address":"7415 St Helena Hwy, Napa, CA 94558, USA"},{"title":"Corvus 2011 Cabernet Sauvignon (Red Mountain)","country":"US","winery":"Corvus","color":"White","year":2011},{"title":"Daou 2013 Reserve Chardonnay (Paso Robles)","country":"US","winery":"Daou","color":"White","year":2013},{"title":"Script 2011 Exordium Cabernet Sauvignon (Wahluke Slope)","country":"US","winery":"Script","color":"White","year":2011,"geocode":{"lat":38.2761203,"lng":-122.4152289},"address":"2100 Denmark St, Sonoma, CA 95476, USA"},{"title":"Steven Kent 2013 Merrillie Chardonnay (Livermore Valley)","country":"US","winery":"Steven Kent","color":"White","year":2013,"geocode":{"lat":37.664233,"lng":-121.728133},"address":"5443 Tesla Rd, Livermore, CA 94550, USA"},{"title":"Woodward Canyon 2013 Chardonnay (Washington)","country":"US","winery":"Woodward Canyon","color":"White","year":2013,"geocode":{"lat":46.0567213,"lng":-118.5827991},"address":"11920 US-12, Lowden, WA 99360, USA"},{"title":"Ott & Murphy 2010 L'Entente Red (Columbia Valley (WA))","country":"US","winery":"Ott & Murphy","color":"White","year":2010},{"title":"Kunde 2013 Destination Series Sustainably Farmed and Estate Grown Viognier (Sonoma Valley)","country":"US","winery":"Kunde","color":"White","year":2013,"geocode":{"lat":38.412206,"lng":-122.5398302},"address":"9825 Sonoma Hwy, Kenwood, CA 95452, USA"},{"title":"Kuentz-Bas 2013 Tradition Riesling (Alsace)","country":"France","winery":"Kuentz-Bas","color":"White","year":2013},{"title":"Le Cercle des Vignerons Saint-Louis 2014 Diamarine Rosé (Coteaux Varois en Provence)","country":"France","winery":"Le Cercle des Vignerons Saint-Louis","color":"White","year":2014},{"title":"Mas Gabinèle 2014 Grenache Gris (Vin de Pays de L'Herault)","country":"France","winery":"Mas Gabinèle","color":"White","year":2014},{"title":"Prominence 2012 Cabernet Sauvignon (Napa Valley)","country":"US","winery":"Prominence","color":"White","year":2012,"geocode":{"lat":38.335714,"lng":-122.370509},"address":"1032 Mt Veeder Rd, Napa, CA 94558, USA"},{"title":"Quintay 2014 Q Grand Reserve Sauvignon Blanc (Casablanca Valley)","country":"Chile","winery":"Quintay","color":"White","year":2014},{"title":"Columbia Crest 2014 Reserve Chenin Blanc (Horse Heaven Hills)","country":"US","winery":"Columbia Crest","color":"White","year":2014},{"title":"Lone Birch 2013 Chardonnay (Yakima Valley)","country":"US","winery":"Lone Birch","color":"White","year":2013,"geocode":{"lat":46.2204949,"lng":-119.7769366},"address":"560 Merlot Dr, Prosser, WA 99350, USA"},{"title":"Santa Alicia 2014 Reserva Espiritu de Los Andes Estate Bottled Cabernet Sauvignon (Maipo Valley)","country":"Chile","winery":"Santa Alicia","color":"White","year":2014},{"title":"Treleaven 2013 Reserve Gewurztraminer (Cayuga Lake)","country":"US","winery":"Treleaven","color":"White","year":2013,"geocode":{"lat":42.65034199999999,"lng":-76.634433},"address":"658 Lake Rd, King Ferry, NY 13081, USA"},{"title":"Provenance Vineyards 2014 Sauvignon Blanc (Rutherford)","country":"US","winery":"Provenance Vineyards","color":"White","year":2014},{"title":"Château la Gordonne 2014 Vérité du Terroir Rosé (Côtes de Provence)","country":"France","winery":"Château la Gordonne","color":"White","year":2014},{"title":"Domaine La Borie Blanche 2012 Terroirs D'Altitude Red (Minervois La Liviniere)","country":"France","winery":"Domaine La Borie Blanche","color":"White","year":2012},{"title":"Yealands 2014 Pinot Gris (Marlborough)","country":"New Zealand","winery":"Yealands","color":"White","year":2014},{"title":"Panthea 2012 Gewürztraminer (Anderson Valley)","country":"US","winery":"Panthea","color":"White","year":2012,"geocode":{"lat":39.124641,"lng":-123.512753},"address":"2400 Guntly Rd, Philo, CA 95466, USA"},{"title":"Standing Sun 2013 Viognier (Santa Barbara County)","country":"US","winery":"Standing Sun","color":"White","year":2013,"geocode":{"lat":34.6152277,"lng":-120.1901279},"address":"92 2nd St, Buellton, CA 93427, USA"},{"title":"Swanson 2013 Cabernet Sauvignon (Napa Valley)","country":"US","winery":"Swanson","color":"White","year":2013,"geocode":{"lat":38.5722239,"lng":-122.5515981},"address":"1077 Dunaweal Ln, Calistoga, CA 94515, USA"},{"title":"Red Newt Cellars 2013 Lahoma Vineyard The Knoll Riesling (Finger Lakes)","country":"US","winery":"Red Newt Cellars","color":"White","year":2013},{"title":"Domaine Zinck 2015 Portrait Gewurztraminer (Alsace)","country":"France","winery":"Domaine Zinck","color":"White","year":2015,"geocode":{"lat":48.0421963,"lng":7.3037319},"address":"18 Rue des 3 Châteaux, 68420 Eguisheim, France"},{"title":"Domaines Schlumberger 2013 Vendanges Tardives Cuvée Christine Gewurztraminer (Alsace)","country":"France","winery":"Domaines Schlumberger","color":"White","year":2013},{"title":"Dry Creek Vineyard 2014 DCV Estate Block 10 Chardonnay (Russian River Valley)","country":"US","winery":"Dry Creek Vineyard","color":"White","year":2014},{"title":"Emile Beyer 2015 Tradition Riesling (Alsace)","country":"France","winery":"Emile Beyer","color":"White","year":2015},{"title":"Gérard Bertrand 2015 Château La Sauvageonne Volcanic Rosé (Coteaux du Languedoc)","country":"France","winery":"Gérard Bertrand","color":"White","year":2015},{"title":"Auclair 2013 Red Wine Heart of the Hill Vineyard Cabernet Sauvignon (Red Mountain)","country":"US","winery":"Auclair","color":"White","year":2013,"geocode":{"lat":47.7625543,"lng":-122.1495803},"address":"18654 142nd Ave NE, Woodinville, WA 98072, USA"},{"title":"B Cellars 2013 Star Vineyard Cabernet Sauvignon (Rutherford)","country":"US","winery":"B Cellars","color":"White","year":2013,"geocode":{"lat":38.4493283,"lng":-122.3735433},"address":"703 Oakville Cross Rd, Napa, CA 94558, USA"},{"title":"Boeckel 2015 Gewurztraminer (Alsace)","country":"France","winery":"Boeckel","color":"White","year":2015},{"title":"Casa Agricola Alexandre Relvas 2014 Herdade de São Miguel Alfrocheiro (Alentejano)","country":"Portugal","winery":"Casa Agricola Alexandre Relvas","color":"White","year":2014,"geocode":{"lat":38.640671,"lng":-7.740557999999999},"address":"Herdade da Pimenta - S. Miguel de Machede 7005 - 752, 7005-752 Évora, Portugal"},{"title":"Casa Larga 2014 Wild Ferment Riesling (Finger Lakes)","country":"US","winery":"Casa Larga","color":"White","year":2014,"geocode":{"lat":43.051453,"lng":-77.432665},"address":"2287 Turk Hill Rd, Fairport, NY 14450, USA"},{"title":"Château Jolys 2014  Jurançon Sec","country":"France","winery":"Château Jolys","color":"White","year":2014},{"title":"Januik 2014 Cold Creek Vineyard Chardonnay (Columbia Valley (WA))","country":"US","winery":"Januik","color":"White","year":2014},{"title":"Joseph Cattin 2015 Riesling (Alsace)","country":"France","winery":"Joseph Cattin","color":"White","year":2015},{"title":"Domaine Bernhard & Reibel 2013 Rittersberg Riesling (Alsace)","country":"France","winery":"Domaine Bernhard & Reibel","color":"White","year":2013},{"title":"Domaine de la Tour Blanche 2014 Pinot Gris (Alsace)","country":"France","winery":"Domaine de la Tour Blanche","color":"White","year":2014},{"title":"Domaine Gresser 2015 Kritt Gewurztraminer (Alsace)","country":"France","winery":"Domaine Gresser","color":"White","year":2015,"geocode":{"lat":48.38645169999999,"lng":7.416097299999999},"address":"2 Rue de l'École, 67140 Andlau, France"},{"title":"Domaine Pfister 2014 Tradition Riesling (Alsace)","country":"France","winery":"Domaine Pfister","color":"White","year":2014,"geocode":{"lat":48.5854917,"lng":7.508338699999999},"address":"53 Rue Principale, 67310 Dahlenheim, France"},{"title":"Domaine Schoffit 2014 Lieu Dit Harth Tradition Riesling (Alsace)","country":"France","winery":"Domaine Schoffit","color":"White","year":2014},{"title":"Flying Horse 2010 Cabernet Sauvignon (Napa Valley)","country":"US","winery":"Flying Horse","color":"White","year":2010,"geocode":{"lat":38.5757402,"lng":-122.4499796},"address":"Angwin, CA 94508, USA"},{"title":"Andrea Felici 2012  Verdicchio dei Castelli di Jesi Classico","country":"Italy","winery":"Andrea Felici","color":"White","year":2012},{"title":"Apex 2012 Sauvignon Blanc (Columbia Valley (WA))","country":"US","winery":"Apex","color":"White","year":2012},{"title":"Basalt 2012 Double River Ranch Estate Semillon (Walla Walla Valley (WA))","country":"US","winery":"Basalt","color":"White","year":2012,"geocode":{"lat":46.424395,"lng":-117.0498848},"address":"906 Port Dr, Clarkston, WA 99403, USA"},{"title":"Bergevin Lane 2012 Love-Struck Viognier (Columbia Valley (WA))","country":"US","winery":"Bergevin Lane","color":"White","year":2012,"geocode":{"lat":46.0686598,"lng":-118.3375825},"address":"70 N Colville St #106, Walla Walla, WA 99362, USA"},{"title":"Hubert Meyer 2011 Winzenberg Grand Cru Riesling (Alsace)","country":"France","winery":"Hubert Meyer","color":"White","year":2011},{"title":"Kiona 2010 Reserve Cabernet Sauvignon (Red Mountain)","country":"US","winery":"Kiona","color":"White","year":2010,"geocode":{"lat":46.2768423,"lng":-119.4528634},"address":"44612 N Sunset Rd, Benton City, WA 99320, USA"},{"title":"Rodney Strong 2010 Brothers Ridge Cabernet Sauvignon (Alexander Valley)","country":"US","winery":"Rodney Strong","color":"White","year":2010},{"title":"Tenuta Cocci Grifoni 2012 Colle Vecchio  (Offida Pecorino)","country":"Italy","winery":"Tenuta Cocci Grifoni","color":"White","year":2012},{"title":"Bouchard Finlayson 2009 Crocodile's Lair Kaaimansgat Chardonnay (Overberg)","country":"South Africa","winery":"Bouchard Finlayson","color":"White","year":2009,"geocode":{"lat":-34.381722,"lng":19.241867},"address":"R320, Hermanus, 7200, South Africa"},{"title":"Katherine Goldschmidt 2011 Crazy Creek Cabernet Sauvignon (Alexander Valley)","country":"US","winery":"Katherine Goldschmidt","color":"White","year":2011},{"title":"La Staffa 2012  Verdicchio dei Castelli di Jesi Classico","country":"Italy","winery":"La Staffa","color":"White","year":2012,"geocode":{"lat":41.3001943,"lng":-73.0214816},"address":"403 Derby Ave, Orange, CT 06477, USA"},{"title":"Marotti Campi 2010 Riserva Salmariano  (Verdicchio dei Castelli di Jesi Classico)","country":"Italy","winery":"Marotti Campi","color":"White","year":2010},{"title":"Chatom Vineyards 2009 Sauvignon Blanc (Calaveras County)","country":"US","winery":"Chatom Vineyards","color":"White","year":2009},{"title":"Colacino 2009 Quarto White (Calabria)","country":"Italy","winery":"Colacino","color":"White","year":2009},{"title":"Geyser Peak 2007 Cabernet Sauvignon (Alexander Valley)","country":"US","winery":"Geyser Peak","color":"White","year":2007,"geocode":{"lat":38.6045893,"lng":-122.8723053},"address":"2306 Magnolia Dr, Healdsburg, CA 95448, USA"},{"title":"Hawkstone 2009 Barney's Heritage Cuvee Chardonnay (Napa Valley)","country":"US","winery":"Hawkstone","color":"White","year":2009},{"title":"La Casa Dell'Orco 2009 Falanghina (Beneventano)","country":"Italy","winery":"La Casa Dell'Orco","color":"White","year":2009},{"title":"Loomis 2009 Air Rosé (Napa Valley)","country":"US","winery":"Loomis","color":"White","year":2009,"geocode":{"lat":38.8089426,"lng":-121.152125},"address":"4060 Ridge Dr, Loomis, CA 95650, USA"},{"title":"Rock Wall 2009 Reserve Chardonnay (Russian River Valley)","country":"US","winery":"Rock Wall","color":"White","year":2009,"geocode":{"lat":37.78359,"lng":-122.3092113},"address":"2301 Monarch St, Alameda, CA 94501, USA"},{"title":"Roth 2008 Cabernet Sauvignon (Alexander Valley)","country":"US","winery":"Roth","color":"White","year":2008},{"title":"Terra dei Re 2009 Claris  (Fiano di Avellino)","country":"Italy","winery":"Terra dei Re","color":"White","year":2009},{"title":"Terra Valentine 2009 Riesling (Spring Mountain District)","country":"US","winery":"Terra Valentine","color":"White","year":2009},{"title":"Umberto Cesari 2009 Moma White (Rubicone)","country":"Italy","winery":"Umberto Cesari","color":"White","year":2009},{"title":"Loomis 2008 Ember Red (Napa Valley)","country":"US","winery":"Loomis","color":"White","year":2008},{"title":"Bargetto 2008 Chardonnay (Central Coast)","country":"US","winery":"Bargetto","color":"White","year":2008},{"title":"Domaine Gresser 2013 Sparkling (Crémant d'Alsace)","country":"France","winery":"Domaine Gresser","color":"White","year":2013},{"title":"Cuvaison 2014 Estate Grown Sauvignon Blanc (Carneros)","country":"US","winery":"Cuvaison","color":"White","year":2014},{"title":"District 7 Wines 2012 Estate Grown Cabernet Sauvignon (Monterey County)","country":"US","winery":"District 7 Wines","color":"White","year":2012,"geocode":{"lat":37.4362854,"lng":-93.5474282},"address":"502 E 560th Rd, Walnut Grove, MO 65770, USA"},{"title":"Domaine Barmès-Buecher 2012 Brut Zero Dosage Sparkling (Crémant d'Alsace)","country":"France","winery":"Domaine Barmès-Buecher","color":"White","year":2012},{"title":"Quivira 2014 Fig Tree Vineyard Sauvignon Blanc (Dry Creek Valley)","country":"US","winery":"Quivira","color":"White","year":2014,"geocode":{"lat":38.6561829,"lng":-122.9380601},"address":"4900 W Dry Creek Rd, Healdsburg, CA 95448, USA"},{"title":"Terra d'Oro 2014 Chenin Blanc-Viognier (Clarksburg)","country":"US","winery":"Terra d'Oro","color":"White","year":2014,"geocode":{"lat":38.509501,"lng":-120.801595},"address":"20680 Shenandoah School Rd, Plymouth, CA 95669, USA"},{"title":"Andreola 2014 Ma's de Fer Rive di Soligo Extra Dry  (Valdobbiadene Prosecco Superiore)","country":"Italy","winery":"Andreola","color":"White","year":2014},{"title":"Bortolomiol 2014 Bandarossa 40th Anniversary Extra Dry  (Valdobbiadene Prosecco Superiore)","country":"Italy","winery":"Bortolomiol","color":"White","year":2014},{"title":"Villa Sandi 2014 Cartizze Vigna La Rivetta  (Valdobbiadene Superiore di Cartizze)","country":"Italy","winery":"Villa Sandi","color":"White","year":2014},{"title":"Weixelbaum 2013 Wahre Werte Auslese Sauvignon Blanc (Niederösterreich)","country":"Austria","winery":"Weixelbaum","color":"White","year":2013},{"title":"Bisol 2014 Cartizze Dry  (Valdobbiadene Superiore di Cartizze)","country":"Italy","winery":"Bisol","color":"White","year":2014},{"title":"Argiolas 2012 S'elegas  (Nuragus di Cagliari)","country":"Italy","winery":"Argiolas","color":"White","year":2012},{"title":"Chateau Ste. Michelle 2011 Cabernet Sauvignon (Columbia Valley (WA))","country":"US","winery":"Chateau Ste. Michelle","color":"White","year":2011,"geocode":{"lat":47.7299119,"lng":-122.1508226},"address":"14111 NE 145th St, Woodinville, WA 98072, USA"},{"title":"Chateau Ste. Michelle 2011 Indian Wells Cabernet Sauvignon (Columbia Valley (WA))","country":"US","winery":"Chateau Ste. Michelle","color":"White","year":2011},{"title":"Domaine Pichot 2009 Les Larmes de Bacchus  (Vouvray)","country":"France","winery":"Domaine Pichot","color":"White","year":2009},{"title":"Les Vins de Vienne 2010 La Sillote Red (Vacqueyras)","country":"France","winery":"Les Vins de Vienne","color":"White","year":2010},{"title":"Domaine des Cantarelles 2012 Rosé de Fayel Rosé (Vin de Pays du Gard)","country":"France","winery":"Domaine des Cantarelles","color":"White","year":2012,"geocode":{"lat":43.53951199999999,"lng":5.937221},"address":"Quartier Cantarelle, 83119 Brue-Auriac, France"},{"title":"Les Trois Couronnes 2011  Gigondas","country":"France","winery":"Les Trois Couronnes","color":"White","year":2011},{"title":"Legaris 2012 Verdejo (Rueda)","country":"Spain","winery":"Legaris","color":"White","year":2012},{"title":"Maisonry 2012 Hudson Vineyard Sauvignon Blanc (Napa Valley)","country":"US","winery":"Maisonry","color":"White","year":2012},{"title":"Shannon Ridge 2012 High Elevation Collection Chardonnay (Lake County)","country":"US","winery":"Shannon Ridge","color":"White","year":2012},{"title":"Tangent 2012 Paragon Vineyard Viognier (Edna Valley)","country":"US","winery":"Tangent","color":"White","year":2012,"geocode":{"lat":35.227335,"lng":-120.599702},"address":"5828 Orcutt Rd, San Luis Obispo, CA 93401, USA"},{"title":"Ancestry 2012 Reminiscence Riesling (Columbia Gorge (WA))","country":"US","winery":"Ancestry","color":"White","year":2012,"geocode":{"lat":47.7522411,"lng":-122.1584307},"address":"13590 NE Village Square Dr #1035, Woodinville, WA 98072, USA"},{"title":"Avennia 2012 Oliane Sauvignon Blanc (Yakima Valley)","country":"US","winery":"Avennia","color":"White","year":2012},{"title":"Balletto 2012 Teresa's Unoaked Estate Chardonnay (Russian River Valley)","country":"US","winery":"Balletto","color":"White","year":2012,"geocode":{"lat":38.42292399999999,"lng":-122.814177},"address":"5700 Occidental Rd, Santa Rosa, CA 95401, USA"},{"title":"Dopff Au Moulin 2015 The Furst Vorbourg Grand Cru Riesling (Alsace)","country":"France","winery":"Dopff Au Moulin","color":"White","year":2015,"geocode":{"lat":48.1660905,"lng":7.3038805},"address":"2 Av. Jacques Preiss, 68340 Riquewihr, France"},{"title":"Gini 2011 Col Foscarin  (Recioto di Soave Classico)","country":"Italy","winery":"Gini","color":"White","year":2011},{"title":"King Estate 2016 Domaine Pinot Gris (Willamette Valley)","country":"US","winery":"King Estate","color":"White","year":2016,"geocode":{"lat":43.8609479,"lng":-123.2506801},"address":"80854 Territorial Hwy, Eugene, OR 97405, USA"},{"title":"Le Mulet Rouge 2016 Estate Viognier (Fiddletown)","country":"US","winery":"Le Mulet Rouge","color":"White","year":2016},{"title":"Malat 2013 Brut Reserve Sparkling (Niederösterreich)","country":"Austria","winery":"Malat","color":"White","year":2013},{"title":"Margerum 2016 M5 White (Santa Barbara County)","country":"US","winery":"Margerum","color":"White","year":2016},{"title":"Nino Franco 2016  Prosecco Superiore di Cartizze","country":"Italy","winery":"Nino Franco","color":"White","year":2016},{"title":"Raymond 2014 Reserve Selection Cabernet Sauvignon (Napa Valley)","country":"US","winery":"Raymond","color":"White","year":2014},{"title":"Boeckel 2014 Extra Brut Chardonnay Sparkling (Crémant d'Alsace)","country":"France","winery":"Boeckel","color":"White","year":2014},{"title":"Chateau Montelena 2014 Cabernet Sauvignon (Napa Valley)","country":"US","winery":"Chateau Montelena","color":"White","year":2014},{"title":"Claiborne & Churchill 2016 Dry Riesling (Edna Valley)","country":"US","winery":"Claiborne & Churchill","color":"White","year":2016,"geocode":{"lat":33.416567,"lng":-88.81128249999999},"address":"74 Claiborne Wy, Starkville, MS 39759, USA"},{"title":"Domaine de la Tour Blanche 2015 Schoenenbourg Grand Cru Riesling (Alsace)","country":"France","winery":"Domaine de la Tour Blanche","color":"White","year":2015},{"title":"Domaine Serene 2015 Evenstad Reserve Chardonnay (Dundee Hills)","country":"US","winery":"Domaine Serene","color":"White","year":2015},{"title":"Domaine Specht 2015 Mandelberg Grand Cru Riesling (Alsace)","country":"France","winery":"Domaine Specht","color":"White","year":2015},{"title":"Chateau Ste. Michelle 2013 Indian Wells Chardonnay (Columbia Valley (WA))","country":"US","winery":"Chateau Ste. Michelle","color":"White","year":2013},{"title":"Damiani 2013 Barrel Fermented Chardonnay (Finger Lakes)","country":"US","winery":"Damiani","color":"White","year":2013,"geocode":{"lat":42.4614154,"lng":-76.864019},"address":"4704 NY-414, Burdett, NY 14818, USA"},{"title":"Edetària 2013 Via Edetana White (Terra Alta)","country":"Spain","winery":"Edetària","color":"White","year":2013,"geocode":{"lat":41.0746186,"lng":0.4297315},"address":"TV-7231, 3, 43780 Gandesa, Tarragona, Spain"},{"title":"Ferllen 2011 Reserve Cabernet Sauvignon (Mendoza)","country":"Argentina","winery":"Ferllen","color":"White","year":2011,"geocode":{"lat":25.7374533,"lng":-80.23167389999999},"address":"2325 Lincoln Ave, Miami, FL 33133, USA"},{"title":"Rutini 2011 Encuentro Cabernet Sauvignon (Mendoza)","country":"Argentina","winery":"Rutini","color":"White","year":2011,"geocode":{"lat":-33.4523018,"lng":-69.2087636},"address":"Km 10.5, RP89, Tupungato, Mendoza, Argentina"},{"title":"Longevity 2011 Cabernet Sauvignon (Livermore Valley)","country":"US","winery":"Longevity","color":"White","year":2011,"geocode":{"lat":37.6759437,"lng":-121.7192298},"address":"2271 S Vasco Rd b, Livermore, CA 94550, USA"},{"title":"Markham 2013 Sauvignon Blanc (Napa Valley)","country":"US","winery":"Markham","color":"White","year":2013,"geocode":{"lat":38.5190235,"lng":-122.4890022},"address":"2812 St Helena Hwy North, St Helena, CA 94574, USA"},{"title":"Onesta 2013 Bokisch Vineyard Viognier (Lodi)","country":"US","winery":"Onesta","color":"White","year":2013},{"title":"Pine Ridge 2012 Cabernet Sauvignon (Rutherford)","country":"US","winery":"Pine Ridge","color":"White","year":2012},{"title":"Refugio Ranch 2012 Viognier (Santa Ynez Valley)","country":"US","winery":"Refugio Ranch","color":"White","year":2012},{"title":"Amizetta 2012 Estate Cabernet Sauvignon (Napa Valley)","country":"US","winery":"Amizetta","color":"White","year":2012,"geocode":{"lat":38.5226426,"lng":-122.3815414},"address":"1099 Greenfield Rd #9625, St Helena, CA 94574, USA"},{"title":"Grans-Fassian 2013 Mineralschiefer Trocken Riesling (Mosel)","country":"Germany","winery":"Grans-Fassian","color":"White","year":2013,"geocode":{"lat":49.81881509999999,"lng":6.882938299999999},"address":"Römerstraße 28, 54340 Leiwen, Germany"},{"title":"Ibarra 2012 La Presa Vineyard Roussanne (Santa Ynez Valley)","country":"US","winery":"Ibarra","color":"White","year":2012},{"title":"Lange 2014 Pinot Gris (Willamette Valley)","country":"US","winery":"Lange","color":"White","year":2014},{"title":"Pala 2014 Chiaro di Stelle Rosato (Isola dei Nuraghi)","country":"Italy","winery":"Pala","color":"White","year":2014},{"title":"Leonard Kreusch 2014 Estate Bottled Riesling (Mosel)","country":"Germany","winery":"Leonard Kreusch","color":"White","year":2014,"geocode":{"lat":49.7597335,"lng":6.6267939},"address":"Martinerfeld 61, 54294 Trier, Germany"},{"title":"Lincourt 2013 Steel Chardonnay (Sta. Rita Hills)","country":"US","winery":"Lincourt","color":"White","year":2013},{"title":"Buehler 2007 Papa's Knoll Cabernet Sauvignon (Napa Valley)","country":"US","winery":"Buehler","color":"White","year":2007},{"title":"Pascal Bouchard 2007 Les Clos Grand Cru  (Chablis)","country":"France","winery":"Pascal Bouchard","color":"White","year":2007},{"title":"Testarossa 2009 Sierra Madre Vineyard Chardonnay (Santa Maria Valley)","country":"US","winery":"Testarossa","color":"White","year":2009},{"title":"Cimarossa 2007 Riva di Ponente Cabernet Sauvignon (Howell Mountain)","country":"US","winery":"Cimarossa","color":"White","year":2007},{"title":"Maison Jessiaume 2008  Corton-Charlemagne","country":"France","winery":"Maison Jessiaume","color":"White","year":2008},{"title":"Joseph Drouhin 2008 Domaine Drouhin-Vaudon Sécher Premier Cru  (Chablis)","country":"France","winery":"Joseph Drouhin","color":"White","year":2008},{"title":"Kendall-Jackson 2008 Vintner's Reserve Cabernet Sauvignon (Sonoma-Napa)","country":"US","winery":"Kendall-Jackson","color":"White","year":2008,"geocode":{"lat":38.50697479999999,"lng":-122.7729337},"address":"5007 Fulton Rd, Santa Rosa, CA 95403, USA"},{"title":"Arrowood 2007 Monte Rosso Vineyard Cabernet Sauvignon (Sonoma Valley)","country":"US","winery":"Arrowood","color":"White","year":2007},{"title":"Hanzell 2008 Chardonnay (Sonoma Valley)","country":"US","winery":"Hanzell","color":"White","year":2008},{"title":"Tulpen 2007 Cabernet Sauvignon (Walla Walla Valley (WA))","country":"US","winery":"Tulpen","color":"White","year":2007},{"title":"Arrowood 2007 Reserve Speciale Cabernet Sauvignon (Sonoma Valley)","country":"US","winery":"Arrowood","color":"White","year":2007,"geocode":{"lat":38.3592556,"lng":-122.5006361},"address":"14347 CA-12, Glen Ellen, CA 95442, USA"},{"title":"Quivira 2012 Rosé (Dry Creek Valley)","country":"US","winery":"Quivira","color":"White","year":2012,"geocode":{"lat":38.6561829,"lng":-122.9380601},"address":"4900 W Dry Creek Rd, Healdsburg, CA 95448, USA"},{"title":"Sagelands 2010 Cabernet Sauvignon (Columbia Valley (WA))","country":"US","winery":"Sagelands","color":"White","year":2010},{"title":"San Pedro 2012 Epica Sauvignon Blanc (Central Valley)","country":"Chile","winery":"San Pedro","color":"White","year":2012},{"title":"Anakena 2011 Ona Special Reserve Riesling-Chardonnay-Viognier White (Leyda Valley)","country":"Chile","winery":"Anakena","color":"White","year":2011},{"title":"Hager Matthias 2011 Sauvignon Blanc (Niederösterreich)","country":"Austria","winery":"Hager Matthias","color":"White","year":2011},{"title":"Château Los Boldos 2012 Cuvée Tradition Chardonnay (Rapel Valley)","country":"Chile","winery":"Château Los Boldos","color":"White","year":2012,"geocode":{"lat":-34.3000093,"lng":-70.8185298},"address":"Camino Los Boldos s/n, Requinoa, O'Higgins, Chile"},{"title":"La Clarine Farm 2012 Nr. 2 White (Sierra Foothills)","country":"US","winery":"La Clarine Farm","color":"White","year":2012},{"title":"10Span 2012 Chardonnay (Santa Barbara County)","country":"US","winery":"10Span","color":"White","year":2012},{"title":"Concha y Toro 2011 Casillero del Diablo Reserva Chardonnay (Limarí Valley)","country":"Chile","winery":"Concha y Toro","color":"White","year":2011},{"title":"Quivira 2012 Fig Tree Vineyard Sauvignon Blanc (Dry Creek Valley)","country":"US","winery":"Quivira","color":"White","year":2012,"geocode":{"lat":38.6561829,"lng":-122.9380601},"address":"4900 W Dry Creek Rd, Healdsburg, CA 95448, USA"},{"title":"Dolin 2014 Bien Nacido Vineyard Chardonnay (Santa Maria Valley)","country":"US","winery":"Dolin","color":"White","year":2014,"geocode":{"lat":39.2005594,"lng":-123.2125428},"address":"501 Parducci Rd, Ukiah, CA 95482, USA"},{"title":"Domdechant Werner 2015 Hochheim Domdechaney Erste Lage Trocken Riesling (Rheingau)","country":"Germany","winery":"Domdechant Werner","color":"White","year":2015},{"title":"Dr. H. Thanisch (Erben Müller-Burggraef) 2015 Bernkasteler Lay Auslese Riesling (Mosel)","country":"Germany","winery":"Dr. H. Thanisch (Erben Müller-Burggraef)","color":"White","year":2015},{"title":"Fritz Haag 2015 Brauneberger Juffer Trocken GG Riesling (Mosel)","country":"Germany","winery":"Fritz Haag","color":"White","year":2015,"geocode":{"lat":49.9075217,"lng":6.986597},"address":"Dusemonder Str. 44, 54472 Brauneberg, Germany"},{"title":"Chalk Hill 2014 Wright Creek Chardonnay (Chalk Hill)","country":"US","winery":"Chalk Hill","color":"White","year":2014},{"title":"Cantina Produttori San Michele Appiano 2015 Schulthauser Pinot Bianco (Alto Adige)","country":"Italy","winery":"Cantina Produttori San Michele Appiano","color":"White","year":2015},{"title":"Cuda Ridge Wines 2013 Reserve Collection Cabernet Sauvignon (Livermore Valley)","country":"US","winery":"Cuda Ridge Wines","color":"White","year":2013,"geocode":{"lat":37.6547921,"lng":-121.7668362},"address":"2400 Arroyo Rd, Livermore, CA 94550, USA"},{"title":"Domdechant Werner 2015 Hochheimer Kabinett Riesling (Rheingau)","country":"Germany","winery":"Domdechant Werner","color":"White","year":2015},{"title":"Jean-Luc and Paul Aegerter 2015  Pernand-Vergelesses","country":"France","winery":"Jean-Luc and Paul Aegerter","color":"White","year":2015},{"title":"Lang & Reed 2015 Chenin Blanc (Napa Valley)","country":"US","winery":"Lang & Reed","color":"White","year":2015,"geocode":{"lat":38.4600131,"lng":-96.0836044},"address":"Lang, Jackson, KS 66801, USA"},{"title":"Okapi 2013 Chardonnay (Napa Valley)","country":"US","winery":"Okapi","color":"White","year":2013,"geocode":{"lat":38.3529367,"lng":-122.3135198},"address":"4193 Big Ranch Rd, Napa, CA 94558, USA"},{"title":"ONX 2014 Crux Red (Templeton Gap District)","country":"US","winery":"ONX","color":"White","year":2014},{"title":"Psagot 2014 Peak Red","country":"Israel","winery":"Psagot","color":"White","year":2014},{"title":"Recanati 2015 Cabernet Sauvignon (Upper Galilee)","country":"Israel","winery":"Recanati","color":"White","year":2015,"geocode":{"lat":32.4048824,"lng":34.8967208},"address":"פארק תעשיות עמק חפר, Gesher HaEts 16, עמק חפר, Israel"},{"title":"Château Haut-Bergey 2009 Barrel sample  (Pessac-Léognan)","country":"France","winery":"Château Haut-Bergey","color":"White","year":2009,"geocode":{"lat":44.7256449,"lng":-0.6092896999999999},"address":"69 Cr Gambetta, 33850 Léognan, France"},{"title":"Le Nardian 2009 Barrel sample  (Bordeaux Blanc)","country":"France","winery":"Le Nardian","color":"White","year":2009},{"title":"Château Bouscaut 2009 Barrel sample  (Pessac-Léognan)","country":"France","winery":"Château Bouscaut","color":"White","year":2009},{"title":"Château Bastor-Lamontagne 2009 Barrel sample  (Sauternes)","country":"France","winery":"Château Bastor-Lamontagne","color":"White","year":2009},{"title":"Zocker 2011 Paragon Vineyard Grüner Veltliner (Edna Valley)","country":"US","winery":"Zocker","color":"White","year":2011},{"title":"Oakville East 2009 Exposure Cabernet Sauvignon (Oakville)","country":"US","winery":"Oakville East","color":"White","year":2009},{"title":"Standing Stone 2010 Vidal Ice Vidal Blanc (Finger Lakes)","country":"US","winery":"Standing Stone","color":"White","year":2010,"geocode":{"lat":42.5434461,"lng":-76.8747894},"address":"9934 NY-414, Hector, NY 14841, USA"},{"title":"La Chablisienne 2010 Les Vénérables  (Chablis)","country":"France","winery":"La Chablisienne","color":"White","year":2010,"geocode":{"lat":47.8120481,"lng":3.7946743},"address":"8 Bd Pasteur, 89800 Chablis, France"},{"title":"Francine et Olivier Savary 2010  Chablis","country":"France","winery":"Francine et Olivier Savary","color":"White","year":2010},{"title":"Glenora 2011 Riesling (Finger Lakes)","country":"US","winery":"Glenora","color":"White","year":2011},{"title":"Blue Plate 2011 Dry Chenin Blanc (Clarksburg)","country":"US","winery":"Blue Plate","color":"White","year":2011,"geocode":{"lat":34.03770799999999,"lng":-96.3387394},"address":"3565 Sawmill Rd, Caddo, OK 74729, USA"},{"title":"Domaine Vrignaud 2010 Les Champréaux  (Chablis)","country":"France","winery":"Domaine Vrignaud","color":"White","year":2010},{"title":"Lone Birch 2011 Pinot Gris (Yakima Valley)","country":"US","winery":"Lone Birch","color":"White","year":2011},{"title":"Undurraga 2008 Sibaris Reserva Especial Cabernet Sauvignon (Maipo Valley)","country":"Chile","winery":"Undurraga","color":"White","year":2008,"geocode":{"lat":-33.6460795,"lng":-70.885914},"address":"Cam. a Melipilla 34, Talagante, Región Metropolitana, Chile"},{"title":"Viña Requingua 2010 Toro de Piedra Reserva Cabernet Sauvignon (Colchagua Valley)","country":"Chile","winery":"Viña Requingua","color":"White","year":2010,"geocode":{"lat":-33.41633520000001,"lng":-70.6093712},"address":"Av. El Cerro 056, Providencia, Región Metropolitana, Chile"},{"title":"Hug 2009 el Pape Red (Central Coast)","country":"US","winery":"Hug","color":"White","year":2009},{"title":"Clos La Chance 2011 Estate Sauvignon Blanc (Central Coast)","country":"US","winery":"Clos La Chance","color":"White","year":2011},{"title":"Conway 2009 Bien Nacido Vineyard Chardonnay (Santa Barbara County)","country":"US","winery":"Conway","color":"White","year":2009,"geocode":{"lat":44.0536942,"lng":-71.12893350000002},"address":"2724 White Mountain Hwy, North Conway, NH 03860, USA"},{"title":"Eagle Eye 2007 Alpha Wolf Vineyards Cabernet Sauvignon (Napa Valley)","country":"US","winery":"Eagle Eye","color":"White","year":2007},{"title":"Franciscan 2009 Cabernet Sauvignon (Oakville)","country":"US","winery":"Franciscan","color":"White","year":2009},{"title":"75 Wine Co. 2011 Sauvignon Blanc (North Coast)","country":"US","winery":"75 Wine Co.","color":"White","year":2011},{"title":"VML 2011 Rosé of Pinot Noir Rosé (Russian River Valley)","country":"US","winery":"VML","color":"White","year":2011},{"title":"Mony 2009 Reserve Dry Red Cabernet Sauvignon (Samson)","country":"Israel","winery":"Mony","color":"White","year":2009},{"title":"Pascal Jolivet 2010 Attitude Sauvignon Blanc (Val de Loire)","country":"France","winery":"Pascal Jolivet","color":"White","year":2010},{"title":"Saintsbury 2009 Brown Ranch Chardonnay (Carneros)","country":"US","winery":"Saintsbury","color":"White","year":2009,"geocode":{"lat":38.2501452,"lng":-122.3255536},"address":"1500 Los Carneros Ave #9742, Napa, CA 94559, USA"},{"title":"Schug 2010 Chardonnay (Carneros)","country":"US","winery":"Schug","color":"White","year":2010},{"title":"Domaine du Claouset 2015 Rosé (Bordeaux Rosé)","country":"France","winery":"Domaine du Claouset","color":"White","year":2015},{"title":"Mossback 2013 Cabernet Sauvignon (Chalk Hill)","country":"US","winery":"Mossback","color":"White","year":2013},{"title":"Oak Farm 2013 Cabernet Sauvignon (Lodi)","country":"US","winery":"Oak Farm","color":"White","year":2013},{"title":"Limited by Cambridge Cellars 2014 Cabernet Sauvignon (Central Coast)","country":"US","winery":"Limited by Cambridge Cellars","color":"White","year":2014},{"title":"Apaltagua 2015 Reserva Rosé (Maule Valley)","country":"Chile","winery":"Apaltagua","color":"White","year":2015},{"title":"Byington 2014 Ventana Vineyards Sauvignon Blanc (Monterey County)","country":"US","winery":"Byington","color":"White","year":2014},{"title":"Ravoire et Fils 2015 Domaine des Bellugues Rosé (Mediterranée)","country":"France","winery":"Ravoire et Fils","color":"White","year":2015},{"title":"3 Badge Beverage 2014 Gehricke Chardonnay (Russian River Valley)","country":"US","winery":"3 Badge Beverage","color":"White","year":2014},{"title":"Bota Box 2015 Moscato (California)","country":"US","winery":"Bota Box","color":"White","year":2015},{"title":"Case Bianche 2015 Barone Beneventano del Bosco White (Sicilia)","country":"Italy","winery":"Case Bianche","color":"White","year":2015},{"title":"Château Toutigeac 2015 Rosé (Bordeaux Rosé)","country":"France","winery":"Château Toutigeac","color":"White","year":2015},{"title":"Chloe 2014 Chardonnay (Sonoma County)","country":"US","winery":"Chloe","color":"White","year":2014,"geocode":{"lat":47.6248436,"lng":-122.3609891},"address":"3480 W Marginal Way SW, Seattle, WA 98106, USA"},{"title":"Jean-Luc and Paul Aegerter 2014 Les Enfants Terribles Chardonnay (Pays d'Oc)","country":"France","winery":"Jean-Luc and Paul Aegerter","color":"White","year":2014,"geocode":{"lat":47.13365539999999,"lng":4.9505402},"address":"49 Rue Henri Challand, 21700 Nuits-Saint-Georges, France"},{"title":"Tololo 2014 Cabernet Sauvignon (Curicó Valley)","country":"Chile","winery":"Tololo","color":"White","year":2014,"geocode":{"lat":39.9673566,"lng":-74.98576709999999},"address":"2 Commerce Dr # 3, Moorestown, NJ 08057, USA"},{"title":"La Croix du Pin 2012 Cuvée Prestige Medium Sweet Muscat (Pays d'Oc)","country":"France","winery":"La Croix du Pin","color":"White","year":2012},{"title":"Nica 2012 Chardonnay (California)","country":"US","winery":"Nica","color":"White","year":2012},{"title":"Producta Vignobles 2015 Cabane aux Oiseaux Rosé (Bordeaux Rosé)","country":"France","winery":"Producta Vignobles","color":"White","year":2015,"geocode":{"lat":44.87857899999999,"lng":-0.5178153},"address":"13 Av. de la Résistance, 33310 Lormont, France"},{"title":"Les Hauts de Lagarde 2015 Rosé (Bordeaux Rosé)","country":"France","winery":"Les Hauts de Lagarde","color":"White","year":2015},{"title":"Nuna 2011 Reserve Torrontés (Salta)","country":"Argentina","winery":"Nuna","color":"White","year":2011,"geocode":{"lat":39.0249596,"lng":-78.2842359},"address":"8043 Main St, Middletown, VA 22645, USA"},{"title":"Paul Cluver 2009 Riesling (Elgin)","country":"South Africa","winery":"Paul Cluver","color":"White","year":2009,"geocode":{"lat":-34.1687417,"lng":19.0855573},"address":"Paul Cluver Estate Wines, N2, Kromco Turn off, De Rust Estate, Grabouw, 7160, South Africa"},{"title":"Peter Zemmer 2007 Cortinie Bianco White (Vigneti delle Dolomiti)","country":"Italy","winery":"Peter Zemmer","color":"White","year":2007},{"title":"Primosic 2008 Gmajne Sauvignon (Collio)","country":"Italy","winery":"Primosic","color":"White","year":2008,"geocode":{"lat":45.979915,"lng":13.610953},"address":"Località Madonnina di Oslavia, 3, 34170 Oslavia GO, Italy"},{"title":"Valentino Butussi 2010 Sauvignon (Colli Orientali del Friuli)","country":"Italy","winery":"Valentino Butussi","color":"White","year":2010},{"title":"Chateau Molyneaux 2009 Cabernet Sauvignon (Livermore Valley)","country":"US","winery":"Chateau Molyneaux","color":"White","year":2009},{"title":"Cobblestone 2007 Cabernet Sauvignon (Atlas Peak)","country":"US","winery":"Cobblestone","color":"White","year":2007,"geocode":{"lat":34.0494853,"lng":-118.4479358},"address":"1500 Cotner Ave, Los Angeles, CA 90025, USA"},{"title":"Cobblestone 2009 Chardonnay (Arroyo Seco)","country":"US","winery":"Cobblestone","color":"White","year":2009},{"title":"Coelho 2010 Estate Renovação Pinot Gris (Willamette Valley)","country":"US","winery":"Coelho","color":"White","year":2010},{"title":"Comelli 2010 Amplius Pinot Grigio (Colli Orientali del Friuli)","country":"Italy","winery":"Comelli","color":"White","year":2010,"geocode":{"lat":46.2072772,"lng":13.2661996},"address":"Largo Armando Diaz, 8, 33045 Nimis UD, Italy"},{"title":"Corvalle 2010 Rutherford Runway Vineyard Sauvignon Blanc (Rutherford)","country":"US","winery":"Corvalle","color":"White","year":2010,"geocode":{"lat":44.5738932,"lng":-123.2603414},"address":"804 NW Buchanan Ave, Corvallis, OR 97330, USA"},{"title":"De Stefani 2010 Tai Tocai (Veneto)","country":"Italy","winery":"De Stefani","color":"White","year":2010},{"title":"Eberle 2009 Vineyard Selection Cabernet Sauvignon (Paso Robles)","country":"US","winery":"Eberle","color":"White","year":2009,"geocode":{"lat":35.6498338,"lng":-120.6281877},"address":"3810 CA-46, Paso Robles, CA 93446, USA"},{"title":"Fairvalley 2009 Cabernet Sauvignon (Stellenbosch)","country":"South Africa","winery":"Fairvalley","color":"White","year":2009},{"title":"Farnese 2010 Casale Vecchio Pecorino (Terre di Chieti)","country":"Italy","winery":"Farnese","color":"White","year":2010},{"title":"François Lurton 2010 Fumées Blanches Réserve Sauvignon Blanc (Côtes de Gascogne)","country":"France","winery":"François Lurton","color":"White","year":2010,"geocode":{"lat":44.8812388,"lng":-0.3312508},"address":"Domaine de poumeyrade, 33870 Vayres, France"},{"title":"Gigante 2009 Chardonnay (Colli Orientali del Friuli)","country":"Italy","winery":"Gigante","color":"White","year":2009},{"title":"Guerra Albano 2009 Sauvignon (Colli Orientali del Friuli)","country":"Italy","winery":"Guerra Albano","color":"White","year":2009},{"title":"Vettori 2009 Manzoni Bianco Manzoni (Colli Trevigiani)","country":"Italy","winery":"Vettori","color":"White","year":2009,"geocode":{"lat":45.9091508,"lng":12.248917},"address":"Via Borgo America, 26, 31020 San Pietro di Feletto TV, Italy"},{"title":"Albino Armani 2009 Colle Ara Pinot Grigio (Valdadige)","country":"Italy","winery":"Albino Armani","color":"White","year":2009},{"title":"Broglia 2009 La Meirana  (Gavi)","country":"Italy","winery":"Broglia","color":"White","year":2009},{"title":"Concha y Toro 2005 Don Melchor Cabernet Sauvignon (Puente Alto)","country":"Chile","winery":"Concha y Toro","color":"White","year":2005,"geocode":{"lat":-33.635605,"lng":-70.57401949999999},"address":"Av. Virginia Subercaseaux 210, Pirque, Región Metropolitana, Chile"},{"title":"Williams Selyem 2006 Heintz Vineyard Chardonnay (Russian River Valley)","country":"US","winery":"Williams Selyem","color":"White","year":2006},{"title":"Von Strasser 2005 Post Vineyard Cabernet Sauvignon (Diamond Mountain District)","country":"US","winery":"Von Strasser","color":"White","year":2005},{"title":"Von Strasser 2005 Rainin Vineyard Cabernet Sauvignon (Diamond Mountain District)","country":"US","winery":"Von Strasser","color":"White","year":2005},{"title":"Talbott 2005 Sleepy Hollow Vineyard Chardonnay (Monterey County)","country":"US","winery":"Talbott","color":"White","year":2005,"geocode":{"lat":36.5562009,"lng":-121.923405},"address":"East Side of Lincoln St., between 5th &, 6th Ave, Carmel-By-The-Sea, CA 93921, USA"},{"title":"Concha y Toro 2005 Terrunyo Block: Las Terrazas Cabernet Sauvignon (Pirque)","country":"Chile","winery":"Concha y Toro","color":"White","year":2005,"geocode":{"lat":-33.635605,"lng":-70.57401949999999},"address":"Av. Virginia Subercaseaux 210, Pirque, Región Metropolitana, Chile"},{"title":"Longoria 2006 Cuvée Diana Chardonnay (Sta. Rita Hills)","country":"US","winery":"Longoria","color":"White","year":2006,"geocode":{"lat":34.6424489,"lng":-120.4532903},"address":"415 E Chestnut Ave, Lompoc, CA 93436, USA"},{"title":"Merryvale 2005 Starmont Cabernet Sauvignon (Napa Valley)","country":"US","winery":"Merryvale","color":"White","year":2005,"geocode":{"lat":38.5018048,"lng":-122.4646646},"address":"1000 Main St, St Helena, CA 94574, USA"},{"title":"Vine Cliff 2006 Chardonnay (Carneros)","country":"US","winery":"Vine Cliff","color":"White","year":2006},{"title":"Williams Selyem 2006 Saralee's Vineyard Cluster Select Late Harvest Gewürztraminer (Russian River Valley)","country":"US","winery":"Williams Selyem","color":"White","year":2006},{"title":"Pessagno 2006 Griva Vineyard Late Harvest Sauvignon Blanc (Arroyo Seco)","country":"US","winery":"Pessagno","color":"White","year":2006},{"title":"Sherwood House Vineyards 2010 Chardonnay (North Fork of Long Island)","country":"US","winery":"Sherwood House Vineyards","color":"White","year":2010},{"title":"Terraprima 2010 Massís del Garraf White (Penedès)","country":"Spain","winery":"Terraprima","color":"White","year":2010},{"title":"Domaine de Givaudan 2009 Léa Red (Côtes du Rhône)","country":"France","winery":"Domaine de Givaudan","color":"White","year":2009,"geocode":{"lat":45.2655399,"lng":-123.0556336},"address":"6750 NE Breyman Orchards Rd, Dayton, OR 97114, USA"},{"title":"Fleur Du Cap 2011 Bergkelder Selection Chenin Blanc (Western Cape)","country":"South Africa","winery":"Fleur Du Cap","color":"White","year":2011},{"title":"3000 BC 2009 Chenin Blanc (Stellenbosch)","country":"South Africa","winery":"3000 BC","color":"White","year":2009},{"title":"Windsor Sonoma 2010 Chardonnay (Russian River Valley)","country":"US","winery":"Windsor Sonoma","color":"White","year":2010,"geocode":{"lat":38.5689032,"lng":-122.8137203},"address":"10810 Hillview Rd, Windsor, CA 95492, USA"},{"title":"Winery of Good Hope 2011 Bush Vine Chenin Blanc (Stellenbosch)","country":"South Africa","winery":"Winery of Good Hope","color":"White","year":2011,"geocode":{"lat":-34.016046,"lng":18.817467},"address":"Rust en Vrede Farm, Off R44, Opposite Eikendal Estate, Stellenbosch, 7600, South Africa"},{"title":"Zull 2011 Lust & Laune Grüner Veltliner (Niederösterreich)","country":"Austria","winery":"Zull","color":"White","year":2011},{"title":"Markus Huber 2011 Hugo Grüner Veltliner (Niederösterreich)","country":"Austria","winery":"Markus Huber","color":"White","year":2011,"geocode":{"lat":48.337472,"lng":15.697274},"address":"Weinriedenweg 13, 3134 Reichersdorf, Austria"},{"title":"Josef Weger 2010 Lagrein Rosato Rosé (Alto Adige)","country":"Italy","winery":"Josef Weger","color":"White","year":2010,"geocode":{"lat":46.4628806,"lng":11.283104},"address":"17, Trentino, Jesuheimstraße, 39057 Cornaiano BZ, Italy"},{"title":"Cartlidge & Browne 2010 Chardonnay (North Coast)","country":"US","winery":"Cartlidge & Browne","color":"White","year":2010},{"title":"Château de Brigue 2010 Signature Red (Côtes de Provence)","country":"France","winery":"Château de Brigue","color":"White","year":2010},{"title":"Château Montaud 2011 Rosé (Côtes de Provence)","country":"France","winery":"Château Montaud","color":"White","year":2011,"geocode":{"lat":43.2335214,"lng":6.1886119},"address":"348 Rte des Maures, 83390 Pierrefeu-du-Var, France"},{"title":"Johanneshof Reinisch 2011 Auslese Rotgipfler (Thermenregion)","country":"Austria","winery":"Johanneshof Reinisch","color":"White","year":2011},{"title":"Kuleto Estate 2008 Estate Cabernet Sauvignon (Napa Valley)","country":"US","winery":"Kuleto Estate","color":"White","year":2008},{"title":"Les Maîtres Vignerons de Saint-Louis 2011 Estandon Rosé (Côtes de Provence)","country":"France","winery":"Les Maîtres Vignerons de Saint-Louis","color":"White","year":2011,"geocode":{"lat":38.6386221,"lng":-90.2264539},"address":"3300 Samuel Shepard Dr, St. Louis, MO 63103, USA"},{"title":"Van Loveren 2011 Chenin No. 5 Chenin Blanc (Robertson)","country":"South Africa","winery":"Van Loveren","color":"White","year":2015},{"title":"Argiolas 2011 Costamolino  (Vermentino di Sardegna)","country":"Italy","winery":"Argiolas","color":"White","year":2011},{"title":"Höpler 2011 Grüner Veltliner (Burgenland)","country":"Austria","winery":"Höpler","color":"White","year":2011},{"title":"Winzer Krems 2011 Ried Sandgrube Grüner Veltliner (Niederösterreich)","country":"Austria","winery":"Winzer Krems","color":"White","year":2011},{"title":"De Sante 2008 L'Atelier White (Napa Valley)","country":"US","winery":"De Sante","color":"White","year":2008},{"title":"Finca Sophenia 2009 Altosur Sauvignon Blanc (Tupungato)","country":"Argentina","winery":"Finca Sophenia","color":"White","year":2009},{"title":"Spann Vineyards 2007 Chardonnay-Viognier (North Coast)","country":"US","winery":"Spann Vineyards","color":"White","year":2007,"geocode":{"lat":38.4194617,"lng":-122.5518752},"address":"8910 Sonoma Hwy, Kenwood, CA 95452, USA"},{"title":"Cascata 2008 The Professors' Classic Dry Gewürztraminer (Finger Lakes)","country":"US","winery":"Cascata","color":"White","year":2008,"geocode":{"lat":42.410154,"lng":-76.8998726},"address":"3651 NY-14, Watkins Glen, NY 14891, USA"},{"title":"Vino dei Fratelli 2008 Pinot Grigio (Delle Venezie)","country":"Italy","winery":"Vino dei Fratelli","color":"White","year":2008,"geocode":{"lat":35.5931612,"lng":-120.7162119},"address":"1595 Arbor Rd, Paso Robles, CA 93446, USA"},{"title":"Haras 2008 Estate Chardonnay (Maipo Valley)","country":"Chile","winery":"Haras","color":"White","year":2008},{"title":"Andeluna 2007 Chardonnay (Tupungato)","country":"Argentina","winery":"Andeluna","color":"White","year":2007,"geocode":{"lat":-33.455505,"lng":-69.21215},"address":"Km 11, RP89, M5561 Tupungato, Mendoza, Argentina"},{"title":"Septima 2009 Chardonnay (Agrelo)","country":"Argentina","winery":"Septima","color":"White","year":2009,"geocode":{"lat":-33.0909567,"lng":-68.9407311},"address":"Ruta Internacional n 7 km 1061, M5509 Agrelo, Mendoza, Argentina"},{"title":"Canyon Wind 2005 Cabernet Sauvignon (Grand Valley)","country":"US","winery":"Canyon Wind","color":"White","year":2005},{"title":"Twin Islands 2010 Sauvignon Blanc (Marlborough)","country":"New Zealand","winery":"Twin Islands","color":"White","year":2010},{"title":"C&B; 2009 Cabernet Sauvignon (Napa Valley)","country":"US","winery":"C&B;","color":"White","year":2009},{"title":"Domaine Foivos 2003 Stalactite  (Muscat of Kefallonian)","country":"Greece","winery":"Domaine Foivos","color":"White","year":2003},{"title":"El Roy 2007 Cabernet Sauvignon (Alexander Valley)","country":"US","winery":"El Roy","color":"White","year":2007},{"title":"Freeman 2009 Ryo-Fu Chardonnay (Russian River Valley)","country":"US","winery":"Freeman","color":"White","year":2009,"geocode":{"lat":38.4094931,"lng":-122.8831176},"address":"1300 Montgomery Rd, Sebastopol, CA 95472, USA"},{"title":"Noceto 2010 Pinot Grigio (Clarksburg)","country":"US","winery":"Noceto","color":"White","year":2010,"geocode":{"lat":38.5216306,"lng":-120.8205056},"address":"11011 Shenandoah Rd, Plymouth, CA 95669, USA"},{"title":"Feudo Principi di Butera 2010 Cabernet Sauvignon (Sicilia)","country":"Italy","winery":"Feudo Principi di Butera","color":"White","year":2010,"geocode":{"lat":37.2175056,"lng":14.0631594},"address":"Feudo Principi di Butera, Contrada Deliella, 93011 Butera CL, Italy"},{"title":"Foris 2011 Pinot Blanc (Rogue Valley)","country":"US","winery":"Foris","color":"White","year":2011,"geocode":{"lat":42.118373,"lng":-123.550604},"address":"654 Kendall Rd, Cave Junction, OR 97523, USA"},{"title":"Tenuta Sarno 1860 2011 Sarno 1860  (Fiano di Avellino)","country":"Italy","winery":"Tenuta Sarno 1860","color":"White","year":2011},{"title":"Bell 2011 Pinot Gris (Willamette Valley)","country":"US","winery":"Bell","color":"White","year":2011},{"title":"Château Laulerie 2010 Comtesse de Ségur  (Montravel)","country":"France","winery":"Château Laulerie","color":"White","year":2010},{"title":"Château Thénac 2011 Fleur du Périgord White (Bergerac Sec)","country":"France","winery":"Château Thénac","color":"White","year":2011},{"title":"Château Tour des Gendres 2010 Moulin des Dames White (Bergerac Sec)","country":"France","winery":"Château Tour des Gendres","color":"White","year":2010,"geocode":{"lat":44.758266,"lng":0.483234},"address":"24240 Ribagnac, France"},{"title":"J. Scott Cellars 2011 Chardonnay (Rogue Valley)","country":"US","winery":"J. Scott Cellars","color":"White","year":2011},{"title":"Martin Ray 2009 Cabernet Sauvignon (Santa Cruz Mountains)","country":"US","winery":"Martin Ray","color":"White","year":2009},{"title":"Martin Ray 2010 Reserve Cabernet Sauvignon (Napa Valley)","country":"US","winery":"Martin Ray","color":"White","year":2010},{"title":"Valle dell'Acate 2010 Bidis White (Sicilia)","country":"Italy","winery":"Valle dell'Acate","color":"White","year":2010},{"title":"Georges Vigouroux 2011 Château Baron White (Gaillac)","country":"France","winery":"Georges Vigouroux","color":"White","year":2011,"geocode":{"lat":44.41614149999999,"lng":1.4376227},"address":"Route de Toulouse CS20159 Cahors Cedex 9, 46003 Cahors, France"},{"title":"Misiones de Rengo 2011 Gran Reserva Cuvée Chardonnay (Leyda Valley)","country":"Chile","winery":"Misiones de Rengo","color":"White","year":2011,"geocode":{"lat":-34.4068549,"lng":-70.86457039999999},"address":"299, - Morán 207, Rengo, O'Higgins, Chile"},{"title":"Tres Sabores 2006 Perspective Cabernet Sauvignon (Rutherford)","country":"US","winery":"Tres Sabores","color":"White","year":2006,"geocode":{"lat":38.46231969999999,"lng":-122.4451902},"address":"1620 S Whitehall Ln, St Helena, CA 94574, USA"},{"title":"Kris 2008 Pinot Grigio (Delle Venezie)","country":"Italy","winery":"Kris","color":"White","year":2008,"geocode":{"lat":32.12831,"lng":-109.709514},"address":"6450 S Bennett Pl, Willcox, AZ 85643, USA"},{"title":"Lagarde 2008 Altas Cumbres Cabernet Sauvignon (Luján de Cuyo)","country":"Argentina","winery":"Lagarde","color":"White","year":2008},{"title":"Raymond Burr 2006 Cabernet Sauvignon (Sonoma County)","country":"US","winery":"Raymond Burr","color":"White","year":2006,"geocode":{"lat":38.69261820000001,"lng":-122.9663052},"address":"8339 W Dry Creek Rd, Healdsburg, CA 95448, USA"},{"title":"M by Martellotto 2007 Cabernet Sauvignon (Napa Valley)","country":"US","winery":"M by Martellotto","color":"White","year":2007,"geocode":{"lat":34.6256505,"lng":-120.1853456},"address":"100 Los Padres Way UNIT 7, Buellton, CA 93427, USA"},{"title":"Buena Vista 2007 Chardonnay (Carneros)","country":"US","winery":"Buena Vista","color":"White","year":2007,"geocode":{"lat":38.2995043,"lng":-122.4219437},"address":"18000 Old Winery Rd, Sonoma, CA 95476, USA"},{"title":"Domaine du Chalet Pouilly 2008  Saint-Véran","country":"France","winery":"Domaine du Chalet Pouilly","color":"White","year":2008,"geocode":{"lat":46.2970182,"lng":4.7270476},"address":"Rue des Gerbeaux, 71960 Solutré-Pouilly, France"},{"title":"Gård 2006 Lawrence Vineyards Cabernet Sauvignon (Columbia Valley (WA))","country":"US","winery":"Gård","color":"White","year":2006},{"title":"Arrowood 2012 Cabernet Sauvignon (Sonoma County)","country":"US","winery":"Arrowood","color":"White","year":2012},{"title":"Bejot Vins et Terroirs 2015 Charles Thomas Rosé (Côtes de Provence Sainte-Victoire)","country":"France","winery":"Bejot Vins et Terroirs","color":"White","year":2015},{"title":"Beringer 2014 Chardonnay (Napa Valley)","country":"US","winery":"Beringer","color":"White","year":2014},{"title":"Château d'Esclans 2015 Rock Angel Rosé (Côtes de Provence)","country":"France","winery":"Château d'Esclans","color":"White","year":2015},{"title":"Château Trians 2015 Rosé (Coteaux Varois en Provence)","country":"France","winery":"Château Trians","color":"White","year":2015,"geocode":{"lat":43.30282829999999,"lng":6.0521441},"address":"Chemin de Trians sur, D68, 83136 Néoules, France"},{"title":"Château Vannières 2015 Rosé (Bandol)","country":"France","winery":"Château Vannières","color":"White","year":2015},{"title":"Conarium 2013 Clos Pepe VIneyard Chardonnay (Sta. Rita Hills)","country":"US","winery":"Conarium","color":"White","year":2013,"geocode":{"lat":34.6422723,"lng":-120.4385626},"address":"1591 E Chestnut Ave, Lompoc, CA 93436, USA"},{"title":"Figgins 2015 Riesling (Walla Walla Valley (WA))","country":"US","winery":"Figgins","color":"White","year":2015,"geocode":{"lat":46.0797309,"lng":-118.2902771},"address":"2900 Melrose St, Walla Walla, WA 99362, USA"},{"title":"Folie à Deux 2013 Cabernet Sauvignon (Alexander Valley)","country":"US","winery":"Folie à Deux","color":"White","year":2013},{"title":"Gini 2014  Soave Classico","country":"Italy","winery":"Gini","color":"White","year":2014},{"title":"Leth 2015 Felser Weinberge Riesling (Wagram)","country":"Austria","winery":"Leth","color":"White","year":2015,"geocode":{"lat":48.4376271,"lng":15.8279649},"address":"Kirchengasse 6, 3481 Fels am Wagram, Austria"},{"title":"Macari 2013 Reserve Chardonnay (North Fork of Long Island)","country":"US","winery":"Macari","color":"White","year":2013},{"title":"Fabre en Provence 2015 Château de l'Aumerade Cuvée Marie-Christine Rosé (Côtes de Provence)","country":"France","winery":"Fabre en Provence","color":"White","year":2015,"geocode":{"lat":43.248397,"lng":6.151311},"address":"Rte de Puget Ville, 83390 Pierrefeu-du-Var, France"},{"title":"Maison Saint Aix 2015 Aix Rosé (Coteaux d'Aix-en-Provence)","country":"France","winery":"Maison Saint Aix","color":"White","year":2015},{"title":"Martin Lane Winery 2011 Estate Cabernet Sauvignon (Sierra Foothills)","country":"US","winery":"Martin Lane Winery","color":"White","year":2011,"geocode":{"lat":49.7899414,"lng":-119.5422662},"address":"5437 Lakeshore Rd, Kelowna, BC V1W 4S5, Canada"},{"title":"Michele Chiarlo 2014 Nivole  (Moscato d'Asti)","country":"Italy","winery":"Michele Chiarlo","color":"White","year":2014},{"title":"Midsummer Cellars 2013 Katz Family Vineyard Cabernet Sauvignon (St. Helena)","country":"US","winery":"Midsummer Cellars","color":"White","year":2013},{"title":"Nielson by Byron 2014 Chardonnay (Santa Maria Valley)","country":"US","winery":"Nielson by Byron","color":"White","year":2014},{"title":"Les Galets de Sauveterre 2012 Red (Côtes du Rhône)","country":"France","winery":"Les Galets de Sauveterre","color":"White","year":2012},{"title":"Melrose 2013 Chardonnay (Umpqua Valley)","country":"US","winery":"Melrose","color":"White","year":2013,"geocode":{"lat":43.2579629,"lng":-123.455155},"address":"885 Melqua Rd, Roseburg, OR 97471, USA"},{"title":"Quinta do Crasto 2011 Crasto Branco White (Douro)","country":"Portugal","winery":"Quinta do Crasto","color":"White","year":2011},{"title":"Siltstone 2014 Guadalupe Vineyard Pinot Gris (Oregon)","country":"US","winery":"Siltstone","color":"White","year":2014},{"title":"Table No. 7 2012 Winemaker's Chardonnay (Lodi)","country":"US","winery":"Table No. 7","color":"White","year":2012},{"title":"Alta Maria 2013 Chardonnay (Santa Maria Valley)","country":"US","winery":"Alta Maria","color":"White","year":2013,"geocode":{"lat":34.6650175,"lng":-120.1150581},"address":"2933 Grand Ave, Los Olivos, CA 93441, USA"},{"title":"Apolloni 2014 Estate Pinot Grigio (Willamette Valley)","country":"US","winery":"Apolloni","color":"White","year":2014,"geocode":{"lat":45.6219292,"lng":-123.2183373},"address":"14135 NW Timmerman Rd, Forest Grove, OR 97116, USA"},{"title":"Fetzer 2013 Shaly Loam Gewurztraminer (Monterey County)","country":"US","winery":"Fetzer","color":"White","year":2013},{"title":"Hearst Ranch 2013 Glacier Ridge Chardonnay (Santa Lucia Highlands)","country":"US","winery":"Hearst Ranch","color":"White","year":2013},{"title":"Mas des Bressades 2013 Cuvée Tradition Rosé (Costières de Nîmes)","country":"France","winery":"Mas des Bressades","color":"White","year":2013,"geocode":{"lat":43.7893,"lng":4.506436},"address":"Rte de Bellegarde, 30129 Manduel, France"},{"title":"Château d'Or et de Gueules 2013 Les Cimels Rosé (Costières de Nîmes)","country":"France","winery":"Château d'Or et de Gueules","color":"White","year":2013},{"title":"Francis Coppola 2011 Diamond Collection Pinot Grigio (California)","country":"US","winery":"Francis Coppola","color":"White","year":2011},{"title":"Francis Coppola 2011 Diamond Collection Sauvignon Blanc (California)","country":"US","winery":"Francis Coppola","color":"White","year":2011,"geocode":{"lat":38.6795554,"lng":-122.8878575},"address":"300 Via Archimedes, Geyserville, CA 95441, USA"},{"title":"Francis Coppola 2011 Sofia Rosé (Monterey County)","country":"US","winery":"Francis Coppola","color":"White","year":2011,"geocode":{"lat":38.6795554,"lng":-122.8878575},"address":"300 Via Archimedes, Geyserville, CA 95441, USA"},{"title":"Morrison Lane 2010 Viognier (Walla Walla Valley (WA))","country":"US","winery":"Morrison Lane","color":"White","year":2010,"geocode":{"lat":46.0654416,"lng":-118.3419489},"address":"201 W Main St, Walla Walla, WA 99362, USA"},{"title":"Recanati 2011 Yasmin White (Shomron)","country":"Israel","winery":"Recanati","color":"White","year":2011},{"title":"Spiropoulos 2010 Made with Organic Grapes Moschofilero (Mantinia)","country":"Greece","winery":"Spiropoulos","color":"White","year":2010},{"title":"Augey 2010  Bordeaux Blanc","country":"France","winery":"Augey","color":"White","year":2010},{"title":"Dynamite Vineyards 2009 Cabernet Sauvignon (Red Hills Lake County)","country":"US","winery":"Dynamite Vineyards","color":"White","year":2009,"geocode":{"lat":38.347589,"lng":-122.458459},"address":"1700 Moon Mountain Rd, Sonoma, CA 95476, USA"},{"title":"Louis and David Luneau 2010 Château des Cléons Sur Lie  (Muscadet Sèvre et Maine)","country":"France","winery":"Louis and David Luneau","color":"White","year":2010,"geocode":{"lat":40.7271418,"lng":-74.0075189},"address":"333 Hudson St suite 505, New York, NY 10013, USA"},{"title":"Kirkland Signature 2009 Cabernet Sauvignon (Alexander Valley)","country":"US","winery":"Kirkland Signature","color":"White","year":2009,"geocode":{"lat":47.7340583,"lng":-122.1522083},"address":"14030 NE 145th St, Woodinville, WA 98072, USA"},{"title":"Lake Chelan 2010 Sweet Riesling (Lake Chelan)","country":"US","winery":"Lake Chelan","color":"White","year":2010},{"title":"Gunsight Rock 2014 Cabernet Sauvignon (Paso Robles)","country":"US","winery":"Gunsight Rock","color":"White","year":2014},{"title":"Lucky Star 2013 Cabernet Sauvignon (California)","country":"US","winery":"Lucky Star","color":"White","year":2013,"geocode":{"lat":38.4369948,"lng":-122.7212155},"address":"10 4th St Suite 208, Santa Rosa, CA 95401, USA"},{"title":"McManis 2015 Cabernet Sauvignon (California)","country":"US","winery":"McManis","color":"White","year":2015},{"title":"Millbrook 2015 Unoaked Chardonnay (New York)","country":"US","winery":"Millbrook","color":"White","year":2015,"geocode":{"lat":41.839832,"lng":-73.68464999999999},"address":"26 Wing Rd, Millbrook, NY 12545, USA"},{"title":"Mussel Bay 2015 Sauvignon Blanc (Marlborough)","country":"New Zealand","winery":"Mussel Bay","color":"White","year":2015},{"title":"Napeequa 2015 Davey Outrageous ¡Chica! White Wine Riesling (Columbia Valley (WA))","country":"US","winery":"Napeequa","color":"White","year":2015,"geocode":{"lat":47.8801571,"lng":-120.1511469},"address":"300 S Quetilquasoon Rd Suite 3, Manson, WA 98831, USA"},{"title":"Nora 2015 Peitán Albariño (Rías Baixas)","country":"Spain","winery":"Nora","color":"White","year":2015,"geocode":{"lat":42.0813035,"lng":-8.4342471},"address":"Bruñeiras 7, 36440 Bruñeiras, Pontevedra, Spain"},{"title":"Jones of Washington 2015 Riesling (Ancient Lakes)","country":"US","winery":"Jones of Washington","color":"White","year":2015},{"title":"Jones of Washington 2015 Sauvignon Blanc (Ancient Lakes)","country":"US","winery":"Jones of Washington","color":"White","year":2015},{"title":"Rutini 2016 Trumpeter Torrontés (Mendoza)","country":"Argentina","winery":"Rutini","color":"White","year":2016},{"title":"TerraNoble 2016 Reserva Terroir El Algarrobo Sauvignon Blanc (Casablanca Valley)","country":"Chile","winery":"TerraNoble","color":"White","year":2016},{"title":"Domaine Petroni 2015 White (Corse)","country":"France","winery":"Domaine Petroni","color":"White","year":2015},{"title":"Dominio de Tares 2015 La Sonrisa de Tares Godello (Bierzo)","country":"Spain","winery":"Dominio de Tares","color":"White","year":2015,"geocode":{"lat":42.6189836,"lng":-6.4666235},"address":"Calle Los Barredos, 4, 24318 San Román de Bembibre, León, Spain"},{"title":"Fabre Montmayou 2016 Rosé (Mendoza)","country":"Argentina","winery":"Fabre Montmayou","color":"White","year":2016},{"title":"Domaine du Grand Montmirail 2010 Cuvée Vieilles Vignes  (Gigondas)","country":"France","winery":"Domaine du Grand Montmirail","color":"White","year":2010},{"title":"Les Vins de Vienne 2009 Les Archevêques  (Condrieu)","country":"France","winery":"Les Vins de Vienne","color":"White","year":2009,"geocode":{"lat":45.4320509,"lng":4.752724499999999},"address":"1 Zone d'Activités, Jassoux, 42410 Chavanay, France"},{"title":"Testarossa 2012 Rincon Vineyard Chardonnay (Arroyo Grande Valley)","country":"US","winery":"Testarossa","color":"White","year":2012,"geocode":{"lat":37.21347799999999,"lng":-121.981544},"address":"300 College Ave, Los Gatos, CA 95030, USA"},{"title":"Tranche 2011 Celilo Vineyard Chardonnay (Columbia Gorge (WA))","country":"US","winery":"Tranche","color":"White","year":2011,"geocode":{"lat":46.061153,"lng":-118.2889323},"address":"705 Berney Dr, Walla Walla, WA 99362, USA"},{"title":"Uvaggio 2013 Zelo Bianco White (Napa-Carneros)","country":"US","winery":"Uvaggio","color":"White","year":2013},{"title":"La Soufrandière 2012 Clos de Grand Père  (Mâcon-Vinzelles)","country":"France","winery":"La Soufrandière","color":"White","year":2012},{"title":"Maisonry 2013 Hudson Vineyard Sans Chêne Sauvignon Blanc (Napa Valley)","country":"US","winery":"Maisonry","color":"White","year":2013},{"title":"Samson 2012 Riesling (Yakima Valley)","country":"US","winery":"Samson","color":"White","year":2012,"geocode":{"lat":48.9095766,"lng":-122.388475},"address":"1861 Van Dyk Rd, Everson, WA 98247, USA"},{"title":"Simonnet-Febvre 2011 Montée de Tonnerre Premier Cru  (Chablis)","country":"France","winery":"Simonnet-Febvre","color":"White","year":2011},{"title":"Tabor 2012 Mt. Tabor Chardonnay (Galilee)","country":"Israel","winery":"Tabor","color":"White","year":2012},{"title":"Tolosa 2012 No Oak Chardonnay (Central Coast)","country":"US","winery":"Tolosa","color":"White","year":2012},{"title":"Sawtooth 2015 Estate Grown Riesling","country":"US","winery":"Sawtooth","color":"White","year":2015,"geocode":{"lat":43.5767591,"lng":-116.7792946},"address":"19348 Lowell Rd Building C, Caldwell, ID 83607, USA"},{"title":"Kim Crawford 2016 Pinot Gris (Marlborough)","country":"New Zealand","winery":"Kim Crawford","color":"White","year":2016},{"title":"Leyda 2015 Single Vineyard Kadún Sauvignon Gris (Leyda Valley)","country":"Chile","winery":"Leyda","color":"White","year":2015},{"title":"Chime 2015 Chardonnay (California)","country":"US","winery":"Chime","color":"White","year":2015},{"title":"Glenora 2015 Pinot Blanc (Finger Lakes)","country":"US","winery":"Glenora","color":"White","year":2015},{"title":"Casas del Bosque 2015 Reserva Sauvignon Blanc (Casablanca Valley)","country":"Chile","winery":"Casas del Bosque","color":"White","year":2015,"geocode":{"lat":-33.3174912,"lng":-71.4349889},"address":"Hijuelas Nº 2 Ex Fundo - Sta Rosa, Casablanca, Valparaíso, Chile"},{"title":"Mt. Beautiful 2014 Pinot Gris","country":"New Zealand","winery":"Mt. Beautiful","color":"White","year":2014},{"title":"Ravoire et Fils 2014 Domaine De Yves Red (Ventoux)","country":"France","winery":"Ravoire et Fils","color":"White","year":2014},{"title":"H to H 2014 Homage to Heritage Red (Côtes du Rhône)","country":"France","winery":"H to H","color":"White","year":2014,"geocode":{"lat":30.3903346,"lng":-95.69679959999999},"address":"14343 Liberty St, Montgomery, TX 77356, USA"},{"title":"Junta 2015 Momentos Reserve Sauvignon Blanc (Curicó Valley)","country":"Chile","winery":"Junta","color":"White","year":2015},{"title":"Terre di Talamo 2015 Vento Teso Viognier (Toscana)","country":"Italy","winery":"Terre di Talamo","color":"White","year":2015},{"title":"240 Days 2015 Rosé (Finger Lakes)","country":"US","winery":"240 Days","color":"White","year":2015},{"title":"Boomtown 2015 Chardonnay (Columbia Valley (WA))","country":"US","winery":"Boomtown","color":"White","year":2015,"geocode":{"lat":39.5602026,"lng":-120.8287311},"address":"200 Main St # B, Downieville, CA 95936, USA"},{"title":"Château Rieussec 2006 Barrel sample  (Sauternes)","country":"France","winery":"Château Rieussec","color":"White","year":2006,"geocode":{"lat":44.53901159999999,"lng":-0.3117292},"address":"Rieussec, 33210 Fargues, France"},{"title":"Stonestreet 2005 Christopher's Cabernet Sauvignon (Alexander Valley)","country":"US","winery":"Stonestreet","color":"White","year":2005},{"title":"Weinrieder 2007 Alte Reben Grüner Veltliner (Niederösterreich)","country":"Austria","winery":"Weinrieder","color":"White","year":2007,"geocode":{"lat":48.66306609999999,"lng":16.5959741},"address":"u. Ortsstraße 44, 2170 Poysdorf, Austria"},{"title":"Gloria Ferrer 2006 Brut Rosé Sparkling (Sonoma County)","country":"US","winery":"Gloria Ferrer","color":"White","year":2006},{"title":"Titus 2006 Reserve Cabernet Sauvignon (Napa Valley)","country":"US","winery":"Titus","color":"White","year":2006},{"title":"Château Clos Haut-Peyraguey 2008 Barrel sample  (Sauternes)","country":"France","winery":"Château Clos Haut-Peyraguey","color":"White","year":2008},{"title":"Château de Myrat 2008 Barrel sample  (Barsac)","country":"France","winery":"Château de Myrat","color":"White","year":2008},{"title":"Château Filhot 2008 Barrel sample  (Sauternes)","country":"France","winery":"Château Filhot","color":"White","year":2008},{"title":"Château Suau 2008 Barrel sample  (Barsac)","country":"France","winery":"Château Suau","color":"White","year":2008},{"title":"Château Lamothe Guignard 2006 Barrel sample  (Sauternes)","country":"France","winery":"Château Lamothe Guignard","color":"White","year":2006},{"title":"Waterbrook 2013 Mélange White Varietal Blend White (Columbia Valley (WA))","country":"US","winery":"Waterbrook","color":"White","year":2013,"geocode":{"lat":46.0537843,"lng":-118.5577327},"address":"10518 US-12, Walla Walla, WA 99362, USA"},{"title":"Galatea Effect 2013 Conoscenti Rosé (California)","country":"US","winery":"Galatea Effect","color":"White","year":2013,"geocode":{"lat":38.29152089999999,"lng":-122.4572466},"address":"25 E Napa St Suite E, Sonoma, CA 95476, USA"},{"title":"Nadler 2014 Grüner Veltliner (Carnuntum)","country":"Austria","winery":"Nadler","color":"White","year":2014,"geocode":{"lat":48.0685697,"lng":16.7032545},"address":"In der Kellergasse 31 gegenüber von, Hauptstraße 88, 2464 Arbesthal, Austria"},{"title":"Oyster Bay 2014 Sauvignon Blanc (Marlborough)","country":"New Zealand","winery":"Oyster Bay","color":"White","year":2014,"geocode":{"lat":-41.547565,"lng":173.5618433},"address":"Wairau Valley 7271, New Zealand"},{"title":"Hosmer 2013 Pinot Noir Brut Rosé Sparkling (Cayuga Lake)","country":"US","winery":"Hosmer","color":"White","year":2013,"geocode":{"lat":42.6840282,"lng":-76.74526259999999},"address":"7020 NY-89, Ovid, NY 14521, USA"},{"title":"Les Hauts de Lagarde 2014  Bordeaux Blanc","country":"France","winery":"Les Hauts de Lagarde","color":"White","year":2014,"geocode":{"lat":43.5895319,"lng":6.471716199999999},"address":"La Cave du Château de Lagarde\" sur la RD 54 direction Digne, Route de Montferrat, 83830 Figanières, France"},{"title":"Maison Bouey 2014 Le Rosé Gourmand de Maison Blanche Rosé (Bordeaux Rosé)","country":"France","winery":"Maison Bouey","color":"White","year":2014},{"title":"Bota Box 2013 Cabernet Sauvignon (California)","country":"US","winery":"Bota Box","color":"White","year":2013},{"title":"Buried Cane 2013 Cabernet Sauvignon (Columbia Valley (WA))","country":"US","winery":"Buried Cane","color":"White","year":2013},{"title":"Château Au Grand Paris 2014  Bordeaux Blanc","country":"France","winery":"Château Au Grand Paris","color":"White","year":2014},{"title":"Château Grand Jean 2014  Entre-Deux-Mers","country":"France","winery":"Château Grand Jean","color":"White","year":2014},{"title":"Château la France 2014 Rosé (Bordeaux Rosé)","country":"France","winery":"Château la France","color":"White","year":2014,"geocode":{"lat":44.8700307,"lng":-0.350629},"address":"1 Rte de Fossés Longues, 33750 Beychac-et-Caillau, France"},{"title":"Château Vircoulon 2014  Bordeaux Blanc","country":"France","winery":"Château Vircoulon","color":"White","year":2014,"geocode":{"lat":44.869443,"lng":-0.134075},"address":"11 au conte, 33330 Saint-Hippolyte, France"},{"title":"Dark Horse 2013 Chardonnay (California)","country":"US","winery":"Dark Horse","color":"White","year":2013,"geocode":{"lat":43.3110973,"lng":-81.73100280000001},"address":"70665 B Line, Grand Bend, ON N0M 1T0, Canada"},{"title":"Goose Ridge 2014 Estate Bottled Pinot Gris (Columbia Valley (WA))","country":"US","winery":"Goose Ridge","color":"White","year":2014},{"title":"Les Vignerons de la Méditerranée 2008 Réserve St. Martin Sauvignon Blanc (Vin de Pays d'Oc)","country":"France","winery":"Les Vignerons de la Méditerranée","color":"White","year":2008,"geocode":{"lat":43.172927,"lng":2.988797},"address":"12 Rue du Rec de Veyret, 11100 Narbonne, France"},{"title":"Piandibugnano 2008 Cuccallegro White (Montecucco)","country":"Italy","winery":"Piandibugnano","color":"White","year":2008,"geocode":{"lat":42.92959,"lng":11.56049},"address":"Localita' Pian Di Bugnano, Seggiano, GR 58038, 58038 Seggiano GR, Italy"},{"title":"Porta 2008 Reserva Cabernet Sauvignon (Aconcagua Valley)","country":"Chile","winery":"Porta","color":"White","year":2008},{"title":"Raphael 2008 Grand Cru Chardonnay (North Fork of Long Island)","country":"US","winery":"Raphael","color":"White","year":2008},{"title":"Albert Bichot 2008 Domaine Long-Depaquit  (Chablis)","country":"France","winery":"Albert Bichot","color":"White","year":2008,"geocode":{"lat":47.0250364,"lng":4.8439377},"address":"6 Bd Jacques Copeau, 21200 Beaune, France"},{"title":"Bocelli 2007 Le Franette White (Toscana)","country":"Italy","winery":"Bocelli","color":"White","year":2007,"geocode":{"lat":40.59740559999999,"lng":-74.08412009999999},"address":"1250 Hylan Blvd, Staten Island, NY 10305, USA"},{"title":"Casa Larga 2007 American Oak Chardonnay (Finger Lakes)","country":"US","winery":"Casa Larga","color":"White","year":2007},{"title":"Concha y Toro 2008 Casillero del Diablo Reserve Cabernet Sauvignon (Central Valley)","country":"Chile","winery":"Concha y Toro","color":"White","year":2008,"geocode":{"lat":-33.635605,"lng":-70.57401949999999},"address":"Av. Virginia Subercaseaux 210, Pirque, Región Metropolitana, Chile"},{"title":"Cave de Ribeauvillé 2007 Prestige Riesling (Alsace)","country":"France","winery":"Cave de Ribeauvillé","color":"White","year":2007,"geocode":{"lat":48.19207129999999,"lng":7.3273652},"address":"2 Rte de Colmar, 68150 Ribeauvillé, France"},{"title":"Macari 2007 Reserve Barrel Fermented Chardonnay (North Fork of Long Island)","country":"US","winery":"Macari","color":"White","year":2007},{"title":"Murphy-Goode 2007 Cabernet Sauvignon (California)","country":"US","winery":"Murphy-Goode","color":"White","year":2007,"geocode":{"lat":38.6097802,"lng":-122.8706907},"address":"241 Healdsburg Ave, Healdsburg, CA 95448, USA"},{"title":"Santa Rita 2008 120 Cabernet Sauvignon (Central Valley)","country":"Chile","winery":"Santa Rita","color":"White","year":2008,"geocode":{"lat":34.66595650000001,"lng":-120.1152408},"address":"2923 Grand Ave, Los Olivos, CA 93441, USA"},{"title":"Chapel Hill 2008 Unwooded Chardonnay (South Australia)","country":"Australia","winery":"Chapel Hill","color":"White","year":2008,"geocode":{"lat":-35.1704091,"lng":138.553062},"address":"Chapel Hill Rd &, Chaffeys Rd, McLaren Vale SA 5171, Australia"},{"title":"Dutch Bill Creek 2008 Chardonnay (Russian River Valley)","country":"US","winery":"Dutch Bill Creek","color":"White","year":2008,"geocode":{"lat":38.5900139,"lng":-122.8376925},"address":"641 Limerick Ln, Healdsburg, CA 95448, USA"},{"title":"Giordano 2008 Primitivo Rosato Rosé (Puglia)","country":"Italy","winery":"Giordano","color":"White","year":2008,"geocode":{"lat":44.6411354,"lng":8.000567799999999},"address":"Via Guido Cane, 47/Bis/50, 12055 Diano D'alba CN, Italy"},{"title":"Kawarau Estate 2007 Reserve Chardonnay (Central Otago)","country":"New Zealand","winery":"Kawarau Estate","color":"White","year":2007},{"title":"Contadi Castaldi 2011 Satén Chardonnay (Franciacorta)","country":"Italy","winery":"Contadi Castaldi","color":"White","year":2011},{"title":"786 Wines 2014 Cabernet Sauvignon (California)","country":"US","winery":"786 Wines","color":"White","year":2014,"geocode":{"lat":46.3036025,"lng":-120.044931},"address":"43-299 US Grape Rd, Sunnyside, WA 98944, USA"},{"title":"Bodegas Cerrosol 2015 Palma Real Verdejo (Rueda)","country":"Spain","winery":"Bodegas Cerrosol","color":"White","year":2015,"geocode":{"lat":33.5321148,"lng":-117.0144087},"address":"39050 De Portola Rd, Temecula, CA 92592, USA"},{"title":"Global Wines 2015 Cabriz Colheita Seleccionada Branco White (Dão)","country":"Portugal","winery":"Global Wines","color":"White","year":2015,"geocode":{"lat":40.4253418,"lng":-8.0192069},"address":"3430-144 Carregal do Sal, Portugal"},{"title":"Château Barbé 2015  Blaye Côtes de Bordeaux","country":"France","winery":"Château Barbé","color":"White","year":2015,"geocode":{"lat":45.08497269999999,"lng":-0.6359302},"address":"Château de Barbe, 33710 Villeneuve, France"},{"title":"Château Jeanguillon 2015  Entre-Deux-Mers","country":"France","winery":"Château Jeanguillon","color":"White","year":2015},{"title":"Santa Alicia 2008 Gran Reserva de Los Andes Cabernet Sauvignon (Maipo Valley)","country":"Chile","winery":"Santa Alicia","color":"White","year":2008},{"title":"Skouras 2009 Cuvée Larsinos Viognier (Peloponnese)","country":"Greece","winery":"Skouras","color":"White","year":2009,"geocode":{"lat":37.689635,"lng":22.654737},"address":"Argous - Sternas Rd (10th Km), Malandreni, Argos 212 00, Greece"},{"title":"Talamonti 2010  Cerasuolo d'Abruzzo","country":"Italy","winery":"Talamonti","color":"White","year":2010,"geocode":{"lat":42.4094369,"lng":13.9703608},"address":"Contrada Palazzo, Loreto Aprutino, PE 65014, 65014 Loreto Aprutino PE, Italy"},{"title":"Gerovassiliou 2009 Sauvignon Blanc (Epanomi)","country":"Greece","winery":"Gerovassiliou","color":"White","year":2009,"geocode":{"lat":40.4509705,"lng":22.9249353},"address":"ktima Gerovassiliou, Επανομή 575 00, Greece"},{"title":"Del Rio 2009 Pinot Gris (Rogue Valley)","country":"US","winery":"Del Rio","color":"White","year":2009,"geocode":{"lat":42.4331703,"lng":-123.0917053},"address":"52 N River Rd, Gold Hill, OR 97525, USA"},{"title":"Laird 2009 Cold Creek Pinot Grigio (Los Carneros)","country":"US","winery":"Laird","color":"White","year":2009},{"title":"Librandi 2009 Critone White (Val di Neto)","country":"Italy","winery":"Librandi","color":"White","year":2009},{"title":"Mockingbird 2007 Red Label Cabernet Sauvignon (Napa Valley)","country":"US","winery":"Mockingbird","color":"White","year":2007},{"title":"MAN Vintners 2010 Sauvignon Blanc (Western Cape)","country":"South Africa","winery":"MAN Vintners","color":"White","year":2010},{"title":"Lomas del Valle 2010 Sauvignon Blanc (Casablanca Valley)","country":"Chile","winery":"Lomas del Valle","color":"White","year":2010},{"title":"Martín Berdugo 2016 Verdejo (Rueda)","country":"Spain","winery":"Martín Berdugo","color":"White","year":2016},{"title":"McCall 2014 Reserve North Ridge Vineyard Chardonnay (North Fork of Long Island)","country":"US","winery":"McCall","color":"White","year":2014},{"title":"Nine Hats 2016 The Benches Vineyard Pinot Gris (Horse Heaven Hills)","country":"US","winery":"Nine Hats","color":"White","year":2016,"geocode":{"lat":47.5679318,"lng":-122.3352999},"address":"3861 1st Ave S, Seattle, WA 98134, USA"},{"title":"Palacio de Bornos 2016 Verdejo (Rueda)","country":"Spain","winery":"Palacio de Bornos","color":"White","year":2016},{"title":"Pascal Rollet 2015 Aux Bouthières  (Pouilly-Fuissé)","country":"France","winery":"Pascal Rollet","color":"White","year":2015},{"title":"Rabble 2015 Mossfire Ranch Cabernet Sauvignon (Paso Robles)","country":"US","winery":"Rabble","color":"White","year":2015},{"title":"Clif Family 2015 Gewürztraminer (Anderson Valley)","country":"US","winery":"Clif Family","color":"White","year":2015,"geocode":{"lat":38.50036830000001,"lng":-122.4640168},"address":"709 Main St, St Helena, CA 94574, USA"},{"title":"Clos des Rocs 2015 En Chantone  (Pouilly-Loché)","country":"France","winery":"Clos des Rocs","color":"White","year":2015},{"title":"Comartin 2016 Adelaide's Rosé (Santa Ynez Valley)","country":"US","winery":"Comartin","color":"White","year":2016},{"title":"Domaine Guillemot-Michel 2015 Quintaine  (Viré-Clessé)","country":"France","winery":"Domaine Guillemot-Michel","color":"White","year":2015},{"title":"Domaine Pascal et Mireille Renaud 2016 Vers Cras  (Pouilly-Fuissé)","country":"France","winery":"Domaine Pascal et Mireille Renaud","color":"White","year":2016,"geocode":{"lat":46.2903616,"lng":4.7408716},"address":"POUILLY BAS, Imp. du Tonnelier, 71960 Solutré-Pouilly, France"},{"title":"Domaine Perraud 2015  Saint-Véran","country":"France","winery":"Domaine Perraud","color":"White","year":2015},{"title":"Domaines Devillard 2015 Château de Chamirey  (Mercurey)","country":"France","winery":"Domaines Devillard","color":"White","year":2015},{"title":"Don Olegario 2016 Albariño (Rías Baixas)","country":"Spain","winery":"Don Olegario","color":"White","year":2016},{"title":"Glenora 2016 Bubbly Riesling (Finger Lakes)","country":"US","winery":"Glenora","color":"White","year":2016},{"title":"Glenora 2016 Riesling (Finger Lakes)","country":"US","winery":"Glenora","color":"White","year":2016,"geocode":{"lat":42.5000667,"lng":-76.9237833},"address":"5435 NY-14, Dundee, NY 14837, USA"},{"title":"Michael Mondavi Family Estate 2012 Emblem Oso Vineyard Cabernet Sauvignon (Napa Valley)","country":"US","winery":"Michael Mondavi Family Estate","color":"White","year":2012},{"title":"Moniker 2013 Chardonnay (Mendocino County)","country":"US","winery":"Moniker","color":"White","year":2013,"geocode":{"lat":39.1997536,"lng":-123.2122641},"address":"501 Parducci Rd, Ukiah, CA 95482, USA"},{"title":"Provenance Vineyards 2012 Barrel Select Cabernet Sauvignon (Rutherford)","country":"US","winery":"Provenance Vineyards","color":"White","year":2012,"geocode":{"lat":38.4257839,"lng":-122.4031331},"address":"1350 Acacia Dr, Oakville, CA 94562, USA"},{"title":"Raymond 2012 District Collection Cabernet Sauvignon (St. Helena)","country":"US","winery":"Raymond","color":"White","year":2012},{"title":"Spring Mountain Vineyard 2012 Cabernet Sauvignon (Napa Valley)","country":"US","winery":"Spring Mountain Vineyard","color":"White","year":2012},{"title":"Testarossa 2013 Lone Oak Vineyard Chardonnay (Santa Lucia Highlands)","country":"US","winery":"Testarossa","color":"White","year":2013},{"title":"Castello di Amorosa 2012 Morisoli-Borges Vineyard Cabernet Sauvignon (Rutherford)","country":"US","winery":"Castello di Amorosa","color":"White","year":2012,"geocode":{"lat":38.5585812,"lng":-122.5427528},"address":"4045 St Helena Hwy, Calistoga, CA 94515, USA"},{"title":"Diamond Creek 2012 Fortieth Anniversary Gravelly Meadow Cabernet Sauvignon (Diamond Mountain District)","country":"US","winery":"Diamond Creek","color":"White","year":2012,"geocode":{"lat":38.5652438,"lng":-122.5735261},"address":"1500 Diamond Mountain Rd, Calistoga, CA 94515, USA"},{"title":"Dr. H. Thanisch (Erben Müller-Burggraef) 2014 Bernkasteler Badstube Kabinett Riesling (Mosel)","country":"Germany","winery":"Dr. H. Thanisch (Erben Müller-Burggraef)","color":"White","year":2014,"geocode":{"lat":49.9055378,"lng":7.0359384},"address":"Junkerland 14, 54470 Bernkastel-Kues, Germany"},{"title":"Domaine Céline et Frédéric Gueguen 2013 Vaucoupin Premier Cru  (Chablis)","country":"France","winery":"Domaine Céline et Frédéric Gueguen","color":"White","year":2013,"geocode":{"lat":47.81329650000001,"lng":3.8007262},"address":"5 Bis Rue Jules Rathier, 89800 Chablis, France"},{"title":"Domaine Vincent Carême 2013 Le Peu Morier  (Vouvray)","country":"France","winery":"Domaine Vincent Carême","color":"White","year":2013,"geocode":{"lat":47.4174072,"lng":0.8504004},"address":"1 Rue du Haut Clos, 37210 Vernou-sur-Brenne, France"},{"title":"Michael Mondavi Family Estate 2011 Animo Cabernet Sauvignon (Napa Valley)","country":"US","winery":"Michael Mondavi Family Estate","color":"White","year":2011},{"title":"Gustafson Family 2013 Heritage Tree Vineyard Estate Riesling (Dry Creek Valley)","country":"US","winery":"Gustafson Family","color":"White","year":2013},{"title":"Keller 2008 La Cruz Vineyard Pinot Gris (Sonoma Coast)","country":"US","winery":"Keller","color":"White","year":2008,"geocode":{"lat":38.1947681,"lng":-122.5442309},"address":"5875 Lakeville Hwy, Petaluma, CA 94954, USA"},{"title":"Château Couhins 2008  Pessac-Léognan","country":"France","winery":"Château Couhins","color":"White","year":2008,"geocode":{"lat":44.754323,"lng":-0.5590149999999999},"address":"Chem. de la Gravette, 33140 Villenave-d'Ornon, France"},{"title":"Conceito Vinhos 2009 Conceito Branco White (Douro)","country":"Portugal","winery":"Conceito Vinhos","color":"White","year":2009,"geocode":{"lat":41.0399628,"lng":-7.3017877},"address":"Quinta Da Veiga, Cedovim, Guarda, 5155-020 Vila Nova de Foz Côa, Portugal"},{"title":"Villa Maria 2009 Cellar Selection Riesling (Marlborough)","country":"New Zealand","winery":"Villa Maria","color":"White","year":2009},{"title":"Vinum 2009 Chenin/Vio Chenin Blanc-Viognier (California)","country":"US","winery":"Vinum","color":"White","year":2009},{"title":"Château Olivier 2008  Pessac-Léognan","country":"France","winery":"Château Olivier","color":"White","year":2008},{"title":"Kirkland Signature 2011 Series Cabernet Sauvignon (Oakville)","country":"US","winery":"Kirkland Signature","color":"White","year":2011},{"title":"Analemma 2012 Atavus Vineyard Gewürztraminer (Columbia Gorge (WA))","country":"US","winery":"Analemma","color":"White","year":2012},{"title":"Bryter 2010 Inspired Cabernet Sauvignon (Napa Valley)","country":"US","winery":"Bryter","color":"White","year":2010,"geocode":{"lat":38.2975108,"lng":-122.2867395},"address":"2940 floral st, Napa, CA 94558, USA"},{"title":"Del Dotto 2011 Family Reserve Cinghiale Vineyard Chardonnay (Fort Ross-Seaview)","country":"US","winery":"Del Dotto","color":"White","year":2011},{"title":"Duckhorn 2010 Cabernet Sauvignon (Napa Valley)","country":"US","winery":"Duckhorn","color":"White","year":2010},{"title":"Dutton Estate 2012 Kyndall's Reserve Chardonnay (Russian River Valley)","country":"US","winery":"Dutton Estate","color":"White","year":2012},{"title":"Fess Parker 2012 Lazy F Ranch Chardonnay (Sta. Rita Hills)","country":"US","winery":"Fess Parker","color":"White","year":2012},{"title":"Hermann J. Wiemer 2010 Noble Select Josef Vineyard Riesling (Seneca Lake)","country":"US","winery":"Hermann J. Wiemer","color":"White","year":2010,"geocode":{"lat":42.5720217,"lng":-76.92809849999999},"address":"3962 NY-14, Dundee, NY 14837, USA"},{"title":"R&A; Pfaffl 2012 Hommage Reserve Grüner Veltliner (Weinviertel)","country":"Austria","winery":"R&A; Pfaffl","color":"White","year":2012},{"title":"Rôtie Cellars 2011 Southern Blend Red (Washington)","country":"US","winery":"Rôtie Cellars","color":"White","year":2011},{"title":"Weixelbaum 2012 Ried Wechselberg Reserve Grüner Veltliner (Kamptal)","country":"Austria","winery":"Weixelbaum","color":"White","year":2012},{"title":"Hermann Moser 2012 Der Löss Reserve Gelbling Grüner Veltliner (Kremstal)","country":"Austria","winery":"Hermann Moser","color":"White","year":2012,"geocode":{"lat":48.4236425,"lng":15.6565973},"address":"Bahnstraße 36, 3495 Rohrendorf bei Krems, Austria"},{"title":"Summerer 2007 Grüne Lady Grüner Veltliner (Kamptal)","country":"Austria","winery":"Summerer","color":"White","year":2007},{"title":"Matanzas Creek 2006 Chardonnay (Sonoma Valley)","country":"US","winery":"Matanzas Creek","color":"White","year":2006},{"title":"Ghost Pines 2006 Chardonnay (Sonoma-Napa-Monterey)","country":"US","winery":"Ghost Pines","color":"White","year":2006,"geocode":{"lat":38.491074,"lng":-122.452179},"address":"254 Saint Helena Hwy S, St Helena, CA 94574, USA"},{"title":"Wente 2006 Morning Fog Chardonnay (Livermore Valley)","country":"US","winery":"Wente","color":"White","year":2006},{"title":"Bennett Family 2006 The Reserve Chardonnay (Russian River Valley)","country":"US","winery":"Bennett Family","color":"White","year":2006},{"title":"Cà Vittoria 2007 Millesimato Dry  (Prosecco di Conegliano e Valdobbiadene)","country":"Italy","winery":"Cà Vittoria","color":"White","year":2007},{"title":"Haggipavlu 2006 Moschofilero (Mantinia)","country":"Greece","winery":"Haggipavlu","color":"White","year":2006,"geocode":{"lat":47.76932410000001,"lng":-122.150548},"address":"19501 144th Ave NE C400, Woodinville, WA 98072, USA"},{"title":"Dougos 2006 Roditis - Assyrtiko White (Thessalikos)","country":"Greece","winery":"Dougos","color":"White","year":2006},{"title":"The Seven Brothers 2001 Sauvignon Blanc (Clear Lake)","country":"US","winery":"The Seven Brothers","color":"White","year":2001},{"title":"Vie di Romans 2001 Dessimis Pinot Grigio (Friuli Isonzo)","country":"Italy","winery":"Vie di Romans","color":"White","year":2001,"geocode":{"lat":45.906569,"lng":13.4523297},"address":"Loc. Vie di Romans, 1, 34070 Mariano del Friuli GO, Italy"},{"title":"Villa Russiz 2001 Sauvignon de la Tour Sauvignon Blanc (Collio)","country":"Italy","winery":"Villa Russiz","color":"White","year":2001},{"title":"Villa Russiz 2001 Tocai (Collio)","country":"Italy","winery":"Villa Russiz","color":"White","year":2001,"geocode":{"lat":45.9491667,"lng":13.5123042},"address":"Via Russiz, 4, 34070 Capriva del Friuli GO, Italy"},{"title":"Montes 2000 Alpha Cabernet Sauvignon (Curicó Valley)","country":"Chile","winery":"Montes","color":"White","year":2000},{"title":"Castellarin 2001 Pinot Grigio (Delle Venezie)","country":"Italy","winery":"Castellarin","color":"White","year":2001},{"title":"Bertani 2002  Soave Classico Superiore","country":"Italy","winery":"Bertani","color":"White","year":2002},{"title":"Masi 2002 Classico  (Soave)","country":"Italy","winery":"Masi","color":"White","year":2002},{"title":"Morandé 2002 Vitisterra Grand Reserve Chardonnay (Casablanca Valley)","country":"Chile","winery":"Morandé","color":"White","year":2002},{"title":"Murphy-Goode 2001 Fumé Blanc (Sonoma County)","country":"US","winery":"Murphy-Goode","color":"White","year":2001,"geocode":{"lat":38.6097802,"lng":-122.8706907},"address":"241 Healdsburg Ave, Healdsburg, CA 95448, USA"},{"title":"San Pedro 2001 Castillo de Molina Reserva Cabernet Sauvignon (Lontué Valley)","country":"Chile","winery":"San Pedro","color":"White","year":2001,"geocode":{"lat":-33.4159987,"lng":-70.6045979},"address":"Av Vitacura 2670, Las Condes, Región Metropolitana, Chile"},{"title":"Elena Walch 2002 Pinot Bianco (Alto Adige)","country":"Italy","winery":"Elena Walch","color":"White","year":2002,"geocode":{"lat":46.3385258,"lng":11.2385953},"address":"Andreas Hofer Str., 1, 39040 Tramin an der Weinstraße., Autonome Provinz Bozen - Südtirol, Italy"},{"title":"Concha y Toro 2001 Xplorador Chardonnay (Casablanca Valley)","country":"Chile","winery":"Concha y Toro","color":"White","year":2001,"geocode":{"lat":-33.635605,"lng":-70.57401949999999},"address":"Av. Virginia Subercaseaux 210, Pirque, Región Metropolitana, Chile"},{"title":"Elena Walch 2002 Castel Ringberg Pinot Grigio (Alto Adige)","country":"Italy","winery":"Elena Walch","color":"White","year":2002},{"title":"Merk 2001 Pinot Bianco (Friuli Aquileia)","country":"Italy","winery":"Merk","color":"White","year":2001},{"title":"La Palma 2002 Estate Bottled Sauvignon Blanc (Cachapoal Valley)","country":"Chile","winery":"La Palma","color":"White","year":2002,"geocode":{"lat":38.3231899,"lng":-122.224353},"address":"4029 Hagen Rd, Napa, CA 94558, USA"},{"title":"Albino Armani 2001 Pinot Grigio (Veneto)","country":"Italy","winery":"Albino Armani","color":"White","year":2001,"geocode":{"lat":45.562197,"lng":10.927739},"address":"Località Camporal, 37020 Marano di Valpolicella VR, Italy"},{"title":"Quinta da Aveleda 2001 Trajadura (Vinho Verde)","country":"Portugal","winery":"Quinta da Aveleda","color":"White","year":2001},{"title":"Esperto 2001 Pinot Grigio (Delle Venezie)","country":"Italy","winery":"Esperto","color":"White","year":2001},{"title":"Tiefenbrunner 2002 Kirchleiten Sauvignon Blanc (Alto Adige)","country":"Italy","winery":"Tiefenbrunner","color":"White","year":2002},{"title":"Volpe Pasini 2002 Zuc de Volpe Ribolla Gialla (Colli Orientali del Friuli)","country":"Italy","winery":"Volpe Pasini","color":"White","year":2002,"geocode":{"lat":46.11364289999999,"lng":13.3973476},"address":"Via Cividale, 16, 33040 Torreano UD, Italy"},{"title":"La Vis 2000 Maso Roncador Müller-Thurgau (Trentino)","country":"Italy","winery":"La Vis","color":"White","year":2000,"geocode":{"lat":46.1377955,"lng":11.1075308},"address":"Via del Carmine, 7, 38015 Lavis TN, Italy"},{"title":"Imagery 2000 Artist Collection White Burgundy White (California)","country":"US","winery":"Imagery","color":"White","year":2000,"geocode":{"lat":38.360117,"lng":-122.503671},"address":"14335 Sonoma Hwy, Glen Ellen, CA 95442, USA"},{"title":"Calama 2002 Chardonnay (Casablanca Valley)","country":"Chile","winery":"Calama","color":"White","year":2002,"geocode":{"lat":-22.4881444,"lng":-68.93246420000001},"address":"Sitio 5-B, Sector D, Calama, Antofagasta, Chile"},{"title":"Wagner 2008 Semi Dry Gewürztraminer (Finger Lakes)","country":"US","winery":"Wagner","color":"White","year":2008},{"title":"Las Valles 2009 Macabeo-Chardonnay (Cariñena)","country":"Spain","winery":"Las Valles","color":"White","year":2009},{"title":"oops 2009 Sauvignon Blanc (Central Valley)","country":"Chile","winery":"oops","color":"White","year":2009},{"title":"Oxford Landing 2008 GSM Grenache-Shiraz-Mourvèdre Red (South Australia)","country":"Australia","winery":"Oxford Landing","color":"White","year":2008},{"title":"Tarara 2008 Charval White Table Wine White (Virginia)","country":"US","winery":"Tarara","color":"White","year":2008},{"title":"Barrel Oak 2008 Barrel Fermented Chardonnay (Virginia)","country":"US","winery":"Barrel Oak","color":"White","year":2008},{"title":"Concha y Toro 2009 Xplorador Chardonnay (Central Valley)","country":"Chile","winery":"Concha y Toro","color":"White","year":2009,"geocode":{"lat":-33.635605,"lng":-70.57401949999999},"address":"Av. Virginia Subercaseaux 210, Pirque, Región Metropolitana, Chile"},{"title":"Fox Run 2008 Gewürztraminer (Finger Lakes)","country":"US","winery":"Fox Run","color":"White","year":2008},{"title":"Wagner 2008 Dry Gewürztraminer (Finger Lakes)","country":"US","winery":"Wagner","color":"White","year":2008,"geocode":{"lat":42.571849,"lng":-76.85932489999999},"address":"9322 St Rt 414 Winery, Lodi, NY 14860, USA"},{"title":"William Cole 2010 Albamar Sauvignon Blanc (Casablanca Valley)","country":"Chile","winery":"William Cole","color":"White","year":2010,"geocode":{"lat":-33.3168079,"lng":-71.3489086},"address":"Casablanca, Valparaíso, Chile"},{"title":"Wolf Blass 2009 Yellow Label Chardonnay (South Australia)","country":"Australia","winery":"Wolf Blass","color":"White","year":2009},{"title":"Peter Lehmann 2009 Chardonnay (Barossa)","country":"Australia","winery":"Peter Lehmann","color":"White","year":2009},{"title":"Paul Dolan 2011 Sauvignon Blanc (Potter Valley)","country":"US","winery":"Paul Dolan","color":"White","year":2011},{"title":"Planeta 2011 Alastro Grecanico (Sicilia)","country":"Italy","winery":"Planeta","color":"White","year":2011},{"title":"Pratsch 2011 Sämling 88 Leicht & Fruchtig Scheurebe (Niederösterreich)","country":"Austria","winery":"Pratsch","color":"White","year":2011},{"title":"Principi di Spadafora 2011 Don Pietro White (Sicilia)","country":"Italy","winery":"Principi di Spadafora","color":"White","year":2011},{"title":"Santa Helena 2011 Selección del Directorio Gran Reserva Cool Coastal Vineyard Sauvignon Blanc (Colchagua Valley)","country":"Chile","winery":"Santa Helena","color":"White","year":2011,"geocode":{"lat":38.520096,"lng":-122.475163},"address":"100 Pratt Ave, St Helena, CA 94574, USA"},{"title":"Schug 2011 Chardonnay (Carneros)","country":"US","winery":"Schug","color":"White","year":2011},{"title":"Baglio del Cristo di Campobello 2011 C'D'C' White (Sicilia)","country":"Italy","winery":"Baglio del Cristo di Campobello","color":"White","year":2011},{"title":"Cameron Hughes 2010 Lot 350 Chardonnay (Santa Maria Valley)","country":"US","winery":"Cameron Hughes","color":"White","year":2010},{"title":"Capolino Perlingieri 2011 Vento Greco (Sannio)","country":"Italy","winery":"Capolino Perlingieri","color":"White","year":2011},{"title":"Chehalem 2011 Ridgecrest Vineyards Sext Riesling (Ribbon Ridge)","country":"US","winery":"Chehalem","color":"White","year":2011},{"title":"Chehalem 2011 Ridgecrest Vineyards Wind Ridge Block Riesling (Ribbon Ridge)","country":"US","winery":"Chehalem","color":"White","year":2011},{"title":"Concha y Toro 2011 Gran Reserva Serie Riberas Ribera del Rapel Chardonnay (Colchagua Valley)","country":"Chile","winery":"Concha y Toro","color":"White","year":2011,"geocode":{"lat":-33.635605,"lng":-70.57401949999999},"address":"Av. Virginia Subercaseaux 210, Pirque, Región Metropolitana, Chile"},{"title":"Domäne Wachau 2011 Terrassen Federspiel Grüner Veltliner (Wachau)","country":"Austria","winery":"Domäne Wachau","color":"White","year":2011,"geocode":{"lat":48.3920656,"lng":15.5273111},"address":"Dürnstein 107, 3601 Dürnstein, Austria"},{"title":"Arnaldo Caprai 2011 Grecante Grechetto (Colli Martani)","country":"Italy","winery":"Arnaldo Caprai","color":"White","year":2011},{"title":"Fattoria Lavacchio 2010 Pachàr White (Toscana)","country":"Italy","winery":"Fattoria Lavacchio","color":"White","year":2010},{"title":"Monteverro 2011 Il Nostro Vermentino (Toscana)","country":"Italy","winery":"Monteverro","color":"White","year":2011},{"title":"Pascual Toso 2009 Alta Reserve Barrancas Vineyards Cabernet Sauvignon (Mendoza)","country":"Argentina","winery":"Pascual Toso","color":"White","year":2009,"geocode":{"lat":-33.103383,"lng":-68.6732823},"address":"RP14 81, Mendoza, Argentina"},{"title":"André Brunel 2009 Red (Châteauneuf-du-Pape)","country":"France","winery":"André Brunel","color":"White","year":2009,"geocode":{"lat":44.055415,"lng":4.8284837},"address":"6 Chem. du Bois de la ville, 84230 Châteauneuf-du-Pape, France"},{"title":"Vinum 2012 Chenin Blanc-Viognier (Clarksburg)","country":"US","winery":"Vinum","color":"White","year":2012},{"title":"Eleven 2012 Elephant Mountain Vineyard Roussanne (Yakima Valley)","country":"US","winery":"Eleven","color":"White","year":2012},{"title":"Hannah Nicole Vineyards 2012 Sauvignon Blanc (Contra Costa County)","country":"US","winery":"Hannah Nicole Vineyards","color":"White","year":2012},{"title":"One Woman 2010 Estate Reserve Chardonnay (North Fork of Long Island)","country":"US","winery":"One Woman","color":"White","year":2010},{"title":"Black Stallion 2012 Chardonnay (Napa Valley)","country":"US","winery":"Black Stallion","color":"White","year":2012},{"title":"Mercer Canyons 2011 Cabernet Sauvignon (Columbia Valley (WA))","country":"US","winery":"Mercer Canyons","color":"White","year":2011},{"title":"Michael Pozzan 2012 Annabella Special Selection Chardonnay (Napa Valley)","country":"US","winery":"Michael Pozzan","color":"White","year":2012,"geocode":{"lat":38.2996766,"lng":-122.2894137},"address":"1205 Randolph St, Napa, CA 94559, USA"},{"title":"Pacific Rim 2012 Wallula Vineyard Biodynamic Riesling (Horse Heaven Hills)","country":"US","winery":"Pacific Rim","color":"White","year":2012},{"title":"Patterson 2011 Cabernet Sauvignon (Columbia Valley (WA))","country":"US","winery":"Patterson","color":"White","year":2011},{"title":"Sculpterra 2012 Estate Viognier (Paso Robles)","country":"US","winery":"Sculpterra","color":"White","year":2012},{"title":"Silver Thread 2012 Doyle East Seneca Vineyard Riesling (Seneca Lake)","country":"US","winery":"Silver Thread","color":"White","year":2012},{"title":"Summerwood 2010 Reserve Cabernet Sauvignon (Paso Robles)","country":"US","winery":"Summerwood","color":"White","year":2010},{"title":"Testarossa 2012 Dahlia Dijon Clones Chardonnay (Santa Lucia Highlands)","country":"US","winery":"Testarossa","color":"White","year":2012},{"title":"Mercer Canyons 2012 Chardonnay (Columbia Valley (WA))","country":"US","winery":"Mercer Canyons","color":"White","year":2012,"geocode":{"lat":45.8790284,"lng":-119.8985351},"address":"46 Sonova Rd, Prosser, WA 99350, USA"},{"title":"Raimat 2012 Castell de Raimat Albariño (Costers del Segre)","country":"Spain","winery":"Raimat","color":"White","year":2012},{"title":"Mi Sueño 2008 Chardonnay (Los Carneros)","country":"US","winery":"Mi Sueño","color":"White","year":2008},{"title":"Clean Slate 2009 Riesling (Mosel)","country":"Germany","winery":"Clean Slate","color":"White","year":2009},{"title":"Lionel Osmin & Cie 2009 Villa Beaurivage White (Vin de France)","country":"France","winery":"Lionel Osmin & Cie","color":"White","year":2009,"geocode":{"lat":43.32619,"lng":-0.3296535},"address":"9 Rue Ada Byron, 64000 Pau, France"},{"title":"Somerston 2009 Highflyer Grenache Blanc (Napa Valley)","country":"US","winery":"Somerston","color":"White","year":2009,"geocode":{"lat":38.5062006,"lng":-122.2772711},"address":"3450 Sage Canyon Rd, St Helena, CA 94574, USA"},{"title":"Bargetto 2008 Gewürztraminer (Monterey County)","country":"US","winery":"Bargetto","color":"White","year":2008,"geocode":{"lat":36.995361,"lng":-121.9544656},"address":"3535 N Main St, Soquel, CA 95073, USA"},{"title":"Bota Box 2009 Cabernet Sauvignon (California)","country":"US","winery":"Bota Box","color":"White","year":2009},{"title":"flipflop 2010 Moscato (California)","country":"US","winery":"flipflop","color":"White","year":2010},{"title":"Domaine des Baumard 2006 La Calèche Chenin Blanc-Chardonnay (Vin de Pays du Jardin de la France)","country":"France","winery":"Domaine des Baumard","color":"White","year":2006,"geocode":{"lat":47.3564572,"lng":-0.6532241},"address":"8 Rue de l'Abbaye, 49190 Rochefort-sur-Loire, France"},{"title":"Ken Forrester 2009 Chenin Blanc (Stellenbosch)","country":"South Africa","winery":"Ken Forrester","color":"White","year":2009},{"title":"Bush Bike 2005 Unoaked Chardonnay (Western Australia)","country":"Australia","winery":"Bush Bike","color":"White","year":2005},{"title":"Casa Nuestra 2007 Home Vineyard Dry Rosado Rosé (Napa Valley)","country":"US","winery":"Casa Nuestra","color":"White","year":2007},{"title":"Red Earth 2007 Chardonnay (Adelaide Plains)","country":"Australia","winery":"Red Earth","color":"White","year":2007},{"title":"Valsanzo 2005 Viña Sanzo Verdejo (Rueda)","country":"Spain","winery":"Valsanzo","color":"White","year":2005,"geocode":{"lat":41.6364066,"lng":-4.7653968},"address":"C. Manuel Azaña, 9, 47014 Valladolid, Spain"},{"title":"Tamayo Family 2006 Sauvignon Blanc (Napa Valley)","country":"US","winery":"Tamayo Family","color":"White","year":2006,"geocode":{"lat":37.9152935,"lng":-121.6460952},"address":"11670 Byron Hwy, Brentwood, CA 94513, USA"},{"title":"Donati 2006 Pinot Grigio (Paicines)","country":"US","winery":"Donati","color":"White","year":2006},{"title":"Señorío de Sarria 2004 Viñedo No. 9 Cabernet Sauvignon (Navarra)","country":"Spain","winery":"Señorío de Sarria","color":"White","year":2004},{"title":"Finca Antigua 2006 Blanco Viura (La Mancha)","country":"Spain","winery":"Finca Antigua","color":"White","year":2006},{"title":"Hayman & Hill 2005 Reserve Selection Cabernet Sauvignon (Napa Valley)","country":"US","winery":"Hayman & Hill","color":"White","year":2005,"geocode":{"lat":42.502152,"lng":-83.309086},"address":"29100 Northwestern Hwy #410, Southfield, MI 48034, USA"},{"title":"Keenan 2006 Chardonnay (Spring Mountain District)","country":"US","winery":"Keenan","color":"White","year":2006},{"title":"Conn Creek 2004 Conn Creek Estate Vineyard Cabernet Sauvignon (Rutherford)","country":"US","winery":"Conn Creek","color":"White","year":2004},{"title":"Gundlach Bundschu 2009 Cabernet Sauvignon (Sonoma Valley)","country":"US","winery":"Gundlach Bundschu","color":"White","year":2009},{"title":"Orion Wine 2010 Rocca del Dragone Falanghina (Campania)","country":"Italy","winery":"Orion Wine","color":"White","year":2010},{"title":"Spann Vineyards 2010 Betsy's Backacher White (California)","country":"US","winery":"Spann Vineyards","color":"White","year":2010},{"title":"Hyland 2011 Riesling (McMinnville)","country":"US","winery":"Hyland","color":"White","year":2011},{"title":"Iron Horse 2008 Wedding Cuvée Sparkling (Green Valley)","country":"US","winery":"Iron Horse","color":"White","year":2008},{"title":"Acrobat 2011 Pinot Gris (Oregon)","country":"US","winery":"Acrobat","color":"White","year":2011},{"title":"Apaltagua 2010 Signature Cabernet Sauvignon (Maipo Valley)","country":"Chile","winery":"Apaltagua","color":"White","year":2010,"geocode":{"lat":-34.6223092,"lng":-71.2656469},"address":"Millahue de s/n - Apalta, Santa Cruz, O'Higgins, Chile"}]